[
  {
    "_id": "f259dfc7-74f6-45f9-8816-914757ebab2d",
    "name": "Mama Diner",
    "address": "68 Great Victoria Street",
    "postcode": "BT12 7BD",
    "hygiene_rating": 5,
    "cuisine": "British / Other",
    "tags": [],
    "lat": 54.598465,
    "lng": -5.96177
  },
  {
    "_id": "0c69fec1-a40c-4912-8bc1-21e47e71ee68",
    "name": "Botanic Bistro Hub",
    "address": "177 University Road",
    "postcode": "BT9 4BA",
    "hygiene_rating": 3,
    "cuisine": "British / Other",
    "tags": []
  },
  {
    "_id": "978f779b-0f01-42f6-9d00-6b7b573596e9",
    "name": "City Bistro Express",
    "address": "69 Malone Road",
    "postcode": "BT12 2AF",
    "hygiene_rating": 3,
    "cuisine": "British / Other",
    "tags": []
  },
  {
    "_id": "5a7b319f-a3c4-4cc2-a36a-6cd8b49dec45",
    "name": "Botanic House",
    "address": "194 Antrim Road",
    "postcode": "BT1 2AE",
    "hygiene_rating": 1,
    "cuisine": "British / Other",
    "tags": []
  },
  {
    "_id": "e1a1c985-252d-48c4-bc83-cd400346ffed",
    "name": "Little Kitchen",
    "address": "193 Great Victoria Street",
    "postcode": "BT5 6AD",
    "hygiene_rating": 5,
    "cuisine": "British / Other",
    "tags": [],
    "lat": 54.584487,
    "lng": -5.887594
  },
  {
    "_id": "904fc705-9aa6-40ae-94d8-874b68a52bf5",
    "name": "Raven Bistro Hub",
    "address": "196 Holywood Road",
    "postcode": "BT3 9AD",
    "hygiene_rating": 3,
    "cuisine": "British / Other",
    "tags": [],
    "lat": 54.613139,
    "lng": -5.902953
  },
  {
    "_id": "a49a7e91-d89a-4341-983c-7338853cfdb3",
    "name": "Golden Diner",
    "address": "103 Donegall Road",
    "postcode": "BT5 2AG",
    "hygiene_rating": 2,
    "cuisine": "British / Other",
    "tags": []
  },
  {
    "_id": "9bb3ef68-e594-453d-b18b-d2cf59f4ae4e",
    "name": "Blue Garden",
    "address": "197 Great Victoria Street",
    "postcode": "BT3 3BG",
    "hygiene_rating": 3,
    "cuisine": "British / Other",
    "tags": []
  },
  {
    "_id": "72466851-0f73-4825-af2f-31a2e3034efe",
    "name": "Test Cafe",
    "address": "123 Test Road",
    "postcode": "BT7 1AA",
    "hygiene_rating": 4,
    "cuisine": "Cafe",
    "tags": [
      "coffee",
      "study"
    ]
  },
  {
    "_id": "8e6a7324-6a36-4332-9adf-34c0b55e74d5",
    "name": "Harbour Sushi Spot",
    "address": "62 York Street",
    "postcode": "BT1 4AC",
    "hygiene_rating": 2,
    "cuisine": "Japanese",
    "tags": [
      "sushi"
    ]
  },
  {
    "_id": "222bf307-56b0-43fa-9bab-473e24097952",
    "name": "Papa Burger",
    "address": "109 Royal Avenue",
    "postcode": "BT4 9AG",
    "hygiene_rating": 5,
    "cuisine": "Burgers",
    "tags": [
      "burger"
    ]
  },
  {
    "_id": "24a7c68b-00ec-4825-9fd6-9c2d70119ef4",
    "name": "Papa Wok",
    "address": "98 Woodstock Road",
    "postcode": "BT10 8AJ",
    "hygiene_rating": 3,
    "cuisine": "Chinese",
    "tags": [
      "noodles"
    ]
  },
  {
    "_id": "5dcbf712-a357-47ea-b17f-1af677b40e5a",
    "name": "Cathedral Tandoori",
    "address": "96 Falls Road",
    "postcode": "BT13 3AA",
    "hygiene_rating": 2,
    "cuisine": "Indian",
    "tags": [
      "curry",
      "spicy"
    ],
    "lat": 54.604663,
    "lng": -5.955857
  },
  {
    "_id": "9825fd3a-f122-403e-a364-6cfe6a0ec733",
    "name": "City Curry",
    "address": "187 Ormeau Road",
    "postcode": "BT8 9AD",
    "hygiene_rating": 4,
    "cuisine": "Indian",
    "tags": [
      "curry",
      "spicy"
    ]
  },
  {
    "_id": "e63c46fb-6f70-4efe-9920-19f65f4838af",
    "name": "Spice Pizza Co.",
    "address": "148 Ravenhill Road",
    "postcode": "BT4 2AB",
    "hygiene_rating": 1,
    "cuisine": "Italian",
    "tags": [
      "pizza"
    ],
    "lat": 54.599845,
    "lng": -5.867717
  },
  {
    "_id": "20e5d833-1380-45c3-a0af-b4dc75bb0203",
    "name": "Golden Diner Bar",
    "address": "19 Donegall Road",
    "postcode": "BT9 4AJ",
    "hygiene_rating": 1,
    "cuisine": "British / Other",
    "tags": []
  },
  {
    "_id": "3358ef99-a88d-4fff-85b0-2130af1fb3e0",
    "name": "Blue Café",
    "address": "240 Shore Road",
    "postcode": "BT15 8AH",
    "hygiene_rating": 4,
    "cuisine": "Cafe",
    "tags": [
      "coffee",
      "breakfast"
    ]
  },
  {
    "_id": "3ba26fe6-b8b1-4de5-a572-2ace1a3b61be",
    "name": "Botanic Diner Bar",
    "address": "142 Howard Street",
    "postcode": "BT4 4AA",
    "hygiene_rating": 2,
    "cuisine": "British / Other",
    "tags": []
  },
  {
    "_id": "43b282da-3674-4730-a637-8b73c916e75e",
    "name": "Blue Wok Place",
    "address": "111 Malone Road",
    "postcode": "BT6 7BE",
    "hygiene_rating": 5,
    "cuisine": "Chinese",
    "tags": [
      "noodles"
    ]
  },
  {
    "_id": "9825c2eb-3d8e-45c5-96ce-dfe5cb19f5d1",
    "name": "Raven Grill Express",
    "address": "130 Sandy Row",
    "postcode": "BT10 1AG",
    "hygiene_rating": 5,
    "cuisine": "Kebab",
    "tags": [
      "kebab"
    ]
  },
  {
    "_id": "7b69311d-90e0-49d5-80d6-b52525450074",
    "name": "Raven Chippy Express",
    "address": "87 Ballygomartin Road",
    "postcode": "BT2 2BD",
    "hygiene_rating": 2,
    "cuisine": "Fish & Chips",
    "tags": [
      "fish",
      "chips"
    ]
  },
  {
    "_id": "ff0f6571-693d-4238-9ed8-5047c81bbcf8",
    "name": "Raven Bistro Express",
    "address": "114 Antrim Road",
    "postcode": "BT13 9AD",
    "hygiene_rating": 1,
    "cuisine": "British / Other",
    "tags": []
  },
  {
    "_id": "668e8a73-58ac-4a09-8165-be272f48c52c",
    "name": "Golden Kitchen Spot",
    "address": "64 Shankill Road",
    "postcode": "BT4 4BF",
    "hygiene_rating": 3,
    "cuisine": "British / Other",
    "tags": []
  },
  {
    "_id": "fbad6521-6fcc-4a60-902e-7e9a7736cb6f",
    "name": "Cathedral Noodle",
    "address": "96 University Road",
    "postcode": "BT8 9BF",
    "hygiene_rating": 2,
    "cuisine": "Chinese",
    "tags": [
      "noodles"
    ]
  },
  {
    "_id": "4f49a9bd-89ab-4f5a-a8cc-56536916ae4c",
    "name": "Malone Wok Co.",
    "address": "208 Newtownards Road",
    "postcode": "BT14 1AF",
    "hygiene_rating": 5,
    "cuisine": "Chinese",
    "tags": [
      "noodles"
    ]
  },
  {
    "_id": "863f0929-fe27-44c3-a43e-b10773835c20",
    "name": "Botanic Slice",
    "address": "222 Sandy Row",
    "postcode": "BT2 7AJ",
    "hygiene_rating": 5,
    "cuisine": "Italian",
    "tags": [
      "pizza"
    ],
    "lat": 54.590885,
    "lng": -5.934422
  },
  {
    "_id": "8e8bab90-22ed-4715-a7e7-dc7a3c069391",
    "name": "Malone Wing",
    "address": "218 Ballygomartin Road",
    "postcode": "BT4 3BE",
    "hygiene_rating": 5,
    "cuisine": "British / Other",
    "tags": [],
    "lat": 54.599997,
    "lng": -5.880477
  },
  {
    "_id": "84a3b97d-8080-4081-9c7e-07b0eb1149df",
    "name": "Blue Café",
    "address": "43 Ormeau Road",
    "postcode": "BT7 1BD",
    "hygiene_rating": 5,
    "cuisine": "Cafe",
    "tags": [
      "coffee",
      "breakfast"
    ]
  },
  {
    "_id": "f961e50e-ca3a-4b2a-979e-2226215a65c7",
    "name": "Green Slice Eatery",
    "address": "184 Malone Road",
    "postcode": "BT8 3AG",
    "hygiene_rating": 5,
    "cuisine": "Italian",
    "tags": [
      "pizza"
    ]
  },
  {
    "_id": "3f1d19af-c1c5-4246-973d-567f78addb2a",
    "name": "Blue Tandoori",
    "address": "41 Holywood Road",
    "postcode": "BT1 9AC",
    "hygiene_rating": 3,
    "cuisine": "Indian",
    "tags": [
      "curry",
      "spicy"
    ]
  },
  {
    "_id": "541f094f-5c64-4c32-a735-20777aedf25d",
    "name": "Urban Grill",
    "address": "16 Great Victoria Street",
    "postcode": "BT12 6AB",
    "hygiene_rating": 1,
    "cuisine": "Kebab",
    "tags": [
      "kebab"
    ],
    "lat": 54.595302,
    "lng": -5.95645
  },
  {
    "_id": "1747d5dc-d2ab-4f69-951e-607c581b09f9",
    "name": "Botanic Street Food",
    "address": "21 Royal Avenue",
    "postcode": "BT7 9BA",
    "hygiene_rating": 5,
    "cuisine": "British / Other",
    "tags": []
  },
  {
    "_id": "ff32ae57-80fc-45b3-802d-90604e58ab00",
    "name": "Papa Garden",
    "address": "221 Malone Road",
    "postcode": "BT4 7AD",
    "hygiene_rating": 2,
    "cuisine": "British / Other",
    "tags": []
  },
  {
    "_id": "fd4b2431-ee34-4661-aff3-8ed97a799b96",
    "name": "City Garden",
    "address": "73 Ravenhill Road",
    "postcode": "BT3 8AL",
    "hygiene_rating": 2,
    "cuisine": "British / Other",
    "tags": []
  },
  {
    "_id": "dd662f81-b3c1-43db-a9d8-e307b9d62829",
    "name": "Spice Wing Co.",
    "address": "19 Shankill Road",
    "postcode": "BT9 4AJ",
    "hygiene_rating": 3,
    "cuisine": "Indian",
    "tags": [
      "curry",
      "spicy"
    ]
  },
  {
    "_id": "bd32ab82-5f90-43cf-ba93-fd0e7c434b8e",
    "name": "Dragon Kitchen",
    "address": "70 Falls Road",
    "postcode": "BT5 4BA",
    "hygiene_rating": 4,
    "cuisine": "Chinese",
    "tags": [
      "noodles"
    ],
    "lat": 54.600206,
    "lng": -5.91524
  },
  {
    "_id": "093983a7-5cc8-4fa6-9f90-544a8e7eb0da",
    "name": "Crown Tandoori Bar",
    "address": "163 Antrim Road",
    "postcode": "BT7 5AB",
    "hygiene_rating": 1,
    "cuisine": "Indian",
    "tags": [
      "curry",
      "spicy"
    ]
  },
  {
    "_id": "a96d9adc-64bc-4c48-83ab-7515cb72a5a9",
    "name": "Urban Chippy Palace",
    "address": "172 Falls Road",
    "postcode": "BT11 5BF",
    "hygiene_rating": null,
    "cuisine": "Fish & Chips",
    "tags": [
      "fish",
      "chips"
    ]
  },
  {
    "_id": "97314c47-bde8-4a54-b84f-bb2ffe23693c",
    "name": "Harbour House",
    "address": "42 Newtownards Road",
    "postcode": "BT12 8BE",
    "hygiene_rating": 3,
    "cuisine": "British / Other",
    "tags": []
  },
  {
    "_id": "5f8484d3-f54d-4a94-94bb-e7461c250b10",
    "name": "Ormeau Wing",
    "address": "77 Great Victoria Street",
    "postcode": "BT15 2AE",
    "hygiene_rating": 5,
    "cuisine": "British / Other",
    "tags": [],
    "lat": 54.609021,
    "lng": -5.938348
  },
  {
    "_id": "7cf9ecaf-e4d5-4a63-be72-ed89570f3a96",
    "name": "Little Kitchen Corner",
    "address": "10 Great Victoria Street",
    "postcode": "BT14 6AE",
    "hygiene_rating": 4,
    "cuisine": "British / Other",
    "tags": [],
    "lat": 54.609382,
    "lng": -5.944274
  },
  {
    "_id": "bafac068-f5ac-4fd9-a414-f510ea33e513",
    "name": "Mama Grill Bar",
    "address": "54 Ravenhill Road",
    "postcode": "BT11 4AD",
    "hygiene_rating": null,
    "cuisine": "Kebab",
    "tags": [
      "kebab"
    ]
  },
  {
    "_id": "1cbddf7d-3a7d-4ff3-8bb5-29fd2ebcb4be",
    "name": "Malone Wok",
    "address": "40 Shore Road",
    "postcode": "BT15 4AF",
    "hygiene_rating": 4,
    "cuisine": "Chinese",
    "tags": [
      "noodles"
    ],
    "lat": 54.632695,
    "lng": -5.92936
  },
  {
    "_id": "d19de4fc-9665-494f-8fb8-e1a499e8043c",
    "name": "Papa Wok Spot",
    "address": "206 Cavehill Road",
    "postcode": "BT11 4AJ",
    "hygiene_rating": 3,
    "cuisine": "Chinese",
    "tags": [
      "noodles"
    ]
  },
  {
    "_id": "e997165a-d1f6-49a6-ad70-8d2b0642a730",
    "name": "Dragon Noodle",
    "address": "57 Albertbridge Road",
    "postcode": "BT4 8BB",
    "hygiene_rating": 5,
    "cuisine": "Chinese",
    "tags": [
      "noodles"
    ]
  },
  {
    "_id": "ff54e051-0471-4a10-8416-5cb160530e9d",
    "name": "Botanic Diner Express",
    "address": "85 Woodstock Road",
    "postcode": "BT5 2AJ",
    "hygiene_rating": null,
    "cuisine": "British / Other",
    "tags": []
  },
  {
    "_id": "6f997c4a-2284-4b6a-b086-9cf33b3f59b2",
    "name": "Ormeau Kitchen Co.",
    "address": "66 Stranmillis Road",
    "postcode": "BT1 7AA",
    "hygiene_rating": 3,
    "cuisine": "British / Other",
    "tags": []
  },
  {
    "_id": "c3f67371-0166-4683-a391-cabdd7868601",
    "name": "Ormeau Noodle",
    "address": "85 Great Victoria Street",
    "postcode": "BT1 2AJ",
    "hygiene_rating": 3,
    "cuisine": "Chinese",
    "tags": [
      "noodles"
    ]
  },
  {
    "_id": "43fc4431-2245-4e49-833e-b528edf91802",
    "name": "Crown Grill Palace",
    "address": "187 Ravenhill Road",
    "postcode": "BT13 6BE",
    "hygiene_rating": 2,
    "cuisine": "Kebab",
    "tags": [
      "kebab"
    ]
  },
  {
    "_id": "de9c75fd-a9e9-4014-8641-843f8c202069",
    "name": "Malone Café Place",
    "address": "236 Malone Road",
    "postcode": "BT6 6AD",
    "hygiene_rating": 5,
    "cuisine": "Cafe",
    "tags": [
      "coffee",
      "breakfast"
    ]
  },
  {
    "_id": "c249ade9-8396-4d95-b823-a4e9864dc0a2",
    "name": "Raven Noodle",
    "address": "158 Botanic Avenue",
    "postcode": "BT10 5BD",
    "hygiene_rating": 3,
    "cuisine": "Chinese",
    "tags": [
      "noodles"
    ]
  },
  {
    "_id": "38f3d270-483b-4d6b-8ed6-99b6e88a78b9",
    "name": "Cathedral Tandoori Palace",
    "address": "104 Donegall Road",
    "postcode": "BT12 5AE",
    "hygiene_rating": 4,
    "cuisine": "Indian",
    "tags": [
      "curry",
      "spicy"
    ]
  },
  {
    "_id": "d61473e0-8341-4522-becb-bd89230c6466",
    "name": "Mama Bakery",
    "address": "153 Great Victoria Street",
    "postcode": "BT6 8BE",
    "hygiene_rating": 3,
    "cuisine": "Bakery",
    "tags": [
      "dessert"
    ],
    "lat": 54.592851,
    "lng": -5.90661
  },
  {
    "_id": "dcb48ae5-cb34-4981-84c3-704b6407b562",
    "name": "Little Curry Palace",
    "address": "138 Cavehill Road",
    "postcode": "BT12 9AH",
    "hygiene_rating": 5,
    "cuisine": "Indian",
    "tags": [
      "curry",
      "spicy"
    ]
  },
  {
    "_id": "4a7a8d1c-5a1a-4a36-a1e4-d2ead437ee90",
    "name": "Urban House Express",
    "address": "157 Albertbridge Road",
    "postcode": "BT14 2BF",
    "hygiene_rating": 4,
    "cuisine": "British / Other",
    "tags": []
  },
  {
    "_id": "b2f0224e-3c0f-4419-b97c-0ebda57328a1",
    "name": "Botanic Burger Bar",
    "address": "87 Woodstock Road",
    "postcode": "BT11 7AF",
    "hygiene_rating": 3,
    "cuisine": "Burgers",
    "tags": [
      "burger"
    ]
  },
  {
    "_id": "34ea2b7a-2e87-45b6-a926-93ad9f669524",
    "name": "Malone Bakery Express",
    "address": "100 Cavehill Road",
    "postcode": "BT15 1BD",
    "hygiene_rating": 5,
    "cuisine": "Bakery",
    "tags": [
      "dessert"
    ]
  },
  {
    "_id": "e954c194-50b8-4ed0-84c0-de31260b3380",
    "name": "Green Café",
    "address": "44 Shore Road",
    "postcode": "BT11 2AL",
    "hygiene_rating": 3,
    "cuisine": "Cafe",
    "tags": [
      "coffee",
      "breakfast"
    ]
  },
  {
    "_id": "5d1817d7-5c84-4060-b3db-35a3d6bb2f7a",
    "name": "Botanic Burger",
    "address": "125 Holywood Road",
    "postcode": "BT11 4AJ",
    "hygiene_rating": 5,
    "cuisine": "Burgers",
    "tags": [
      "burger"
    ]
  },
  {
    "_id": "ebc116e6-df7f-4a4b-916f-98c930b475f2",
    "name": "Malone Bakery",
    "address": "221 Shore Road",
    "postcode": "BT8 8AJ",
    "hygiene_rating": 4,
    "cuisine": "Bakery",
    "tags": [
      "dessert"
    ],
    "lat": 54.532683,
    "lng": -5.855662
  },
  {
    "_id": "cc7bcf24-3a2c-4968-b0c6-b130deeb4b32",
    "name": "Botanic Noodle",
    "address": "55 Boucher Road",
    "postcode": "BT2 7BE",
    "hygiene_rating": null,
    "cuisine": "Chinese",
    "tags": [
      "noodles"
    ],
    "lat": 54.592303,
    "lng": -5.933809
  },
  {
    "_id": "55e7239f-8c5d-4951-abd9-89086342959a",
    "name": "Green House",
    "address": "7 Great Victoria Street",
    "postcode": "BT15 7AA",
    "hygiene_rating": 2,
    "cuisine": "British / Other",
    "tags": []
  },
  {
    "_id": "5812ff79-3fb0-4e29-9109-0126c98d4cd7",
    "name": "Raven House",
    "address": "13 Botanic Avenue",
    "postcode": "BT5 7BA",
    "hygiene_rating": 4,
    "cuisine": "British / Other",
    "tags": [],
    "lat": 54.591065,
    "lng": -5.850398
  },
  {
    "_id": "270b744e-57d6-4480-ab8d-3e272e17df37",
    "name": "Blue Kitchen",
    "address": "120 Stranmillis Road",
    "postcode": "BT12 5BB",
    "hygiene_rating": 3,
    "cuisine": "British / Other",
    "tags": []
  },
  {
    "_id": "5fb75a70-bee8-482c-83ea-826a2081149e",
    "name": "Spice Sushi Eatery",
    "address": "244 Ormeau Road",
    "postcode": "BT6 4AC",
    "hygiene_rating": 4,
    "cuisine": "Indian",
    "tags": [
      "curry",
      "spicy"
    ]
  },
  {
    "_id": "c90792f5-2135-484d-956e-cba2b08a2531",
    "name": "Green Chippy Palace",
    "address": "193 Newtownards Road",
    "postcode": "BT14 7AJ",
    "hygiene_rating": 3,
    "cuisine": "Fish & Chips",
    "tags": [
      "fish",
      "chips"
    ],
    "lat": 54.614228,
    "lng": -5.951368
  },
  {
    "_id": "71b0db52-92dd-4bd0-b63b-3f452ac7af14",
    "name": "Golden Wing",
    "address": "215 Stranmillis Road",
    "postcode": "BT1 3AH",
    "hygiene_rating": 3,
    "cuisine": "British / Other",
    "tags": [],
    "lat": 54.607676,
    "lng": -5.920183
  },
  {
    "_id": "19da527c-9eb1-4a31-9ffc-3befd2aff88e",
    "name": "Urban Garden",
    "address": "63 University Road",
    "postcode": "BT2 5AD",
    "hygiene_rating": 4,
    "cuisine": "British / Other",
    "tags": []
  },
  {
    "_id": "b19d58a2-a0bb-460b-b026-f9fb97fa991e",
    "name": "Dragon Bistro",
    "address": "149 Shankill Road",
    "postcode": "BT1 5BD",
    "hygiene_rating": 4,
    "cuisine": "Chinese",
    "tags": [
      "noodles"
    ]
  },
  {
    "_id": "75ad0f9f-b9c3-49e0-af63-b51685c3323d",
    "name": "Golden Curry",
    "address": "95 Malone Road",
    "postcode": "BT2 9BA",
    "hygiene_rating": 1,
    "cuisine": "Indian",
    "tags": [
      "curry",
      "spicy"
    ]
  },
  {
    "_id": "66f2b3f2-f3a3-4c0d-8811-6323ec27510e",
    "name": "Raven Sushi Spot",
    "address": "229 University Road",
    "postcode": "BT14 8AE",
    "hygiene_rating": 4,
    "cuisine": "Japanese",
    "tags": [
      "sushi"
    ],
    "lat": 54.622768,
    "lng": -5.976689
  },
  {
    "_id": "e992e64e-3d1b-4cfe-af50-26568d8f0187",
    "name": "Papa Tandoori",
    "address": "158 Newtownards Road",
    "postcode": "BT13 9BG",
    "hygiene_rating": 5,
    "cuisine": "Indian",
    "tags": [
      "curry",
      "spicy"
    ]
  },
  {
    "_id": "0d2d05de-d32f-4368-8f19-9a4ce204c9d2",
    "name": "Raven Street Food Express",
    "address": "72 Antrim Road",
    "postcode": "BT15 8AH",
    "hygiene_rating": 4,
    "cuisine": "British / Other",
    "tags": []
  },
  {
    "_id": "549599f5-4463-4c24-8283-6228f81b1e7a",
    "name": "Green Street Food",
    "address": "87 Woodstock Road",
    "postcode": "BT1 8BA",
    "hygiene_rating": 3,
    "cuisine": "British / Other",
    "tags": []
  },
  {
    "_id": "7d49ccd7-dec7-4e92-ba31-4d07248b2b1b",
    "name": "Harbour Garden",
    "address": "61 Ballygomartin Road",
    "postcode": "BT11 5AH",
    "hygiene_rating": 4,
    "cuisine": "British / Other",
    "tags": []
  },
  {
    "_id": "6bb5d3e0-e76e-4cda-81ed-609835a38a63",
    "name": "Little Slice Palace",
    "address": "156 Howard Street",
    "postcode": "BT11 6BF",
    "hygiene_rating": 5,
    "cuisine": "Italian",
    "tags": [
      "pizza"
    ]
  },
  {
    "_id": "2d31e668-0604-4d30-bc02-e3424d00cbae",
    "name": "Spice Slice Spot",
    "address": "229 Donegall Road",
    "postcode": "BT9 2AE",
    "hygiene_rating": 3,
    "cuisine": "Italian",
    "tags": [
      "pizza"
    ]
  },
  {
    "_id": "fe86ea0f-e1a4-42b4-9574-b9a6f3bb15f6",
    "name": "Urban Noodle Express",
    "address": "168 Falls Road",
    "postcode": "BT12 1AD",
    "hygiene_rating": 4,
    "cuisine": "Chinese",
    "tags": [
      "noodles"
    ]
  },
  {
    "_id": "ae742e57-e81e-40c2-9662-562614bfdb53",
    "name": "Raven Diner Eatery",
    "address": "13 Castlereagh Road",
    "postcode": "BT9 4AD",
    "hygiene_rating": 5,
    "cuisine": "British / Other",
    "tags": []
  },
  {
    "_id": "3d12afd2-8c74-4398-966d-88cce31a0ce2",
    "name": "Blue Café Hub",
    "address": "72 Donegall Road",
    "postcode": "BT15 5AA",
    "hygiene_rating": 3,
    "cuisine": "Cafe",
    "tags": [
      "coffee",
      "breakfast"
    ],
    "lat": 54.620809,
    "lng": -5.938325
  },
  {
    "_id": "5cee0d31-6236-4519-9eed-0d7f59048230",
    "name": "Urban Garden Palace",
    "address": "143 Albertbridge Road",
    "postcode": "BT13 4BG",
    "hygiene_rating": 1,
    "cuisine": "British / Other",
    "tags": []
  },
  {
    "_id": "de3267da-ffed-459c-a9e1-8e17a0707ef5",
    "name": "Blue Bakery",
    "address": "76 Antrim Road",
    "postcode": "BT4 7AH",
    "hygiene_rating": 5,
    "cuisine": "Bakery",
    "tags": [
      "dessert"
    ]
  },
  {
    "_id": "b2e8200b-7539-4837-98bb-98d378f12074",
    "name": "City Sushi",
    "address": "109 Ravenhill Road",
    "postcode": "BT12 9BA",
    "hygiene_rating": null,
    "cuisine": "Japanese",
    "tags": [
      "sushi"
    ]
  },
  {
    "_id": "2cdb46ed-f273-4a45-a432-8fa45b71ad9b",
    "name": "Malone Bistro Lounge",
    "address": "186 Newtownards Road",
    "postcode": "BT10 9AL",
    "hygiene_rating": 2,
    "cuisine": "British / Other",
    "tags": []
  },
  {
    "_id": "12006e09-5354-41e4-9d66-b4fc9c30b3d3",
    "name": "Green Burger Express",
    "address": "185 Shankill Road",
    "postcode": "BT4 6AD",
    "hygiene_rating": 5,
    "cuisine": "Burgers",
    "tags": [
      "burger"
    ]
  },
  {
    "_id": "6a2c6ebc-d601-4d13-b0cf-2d32f9f228b1",
    "name": "Urban Slice Corner",
    "address": "4 York Street",
    "postcode": "BT12 9AE",
    "hygiene_rating": 5,
    "cuisine": "Italian",
    "tags": [
      "pizza"
    ]
  },
  {
    "_id": "3604f412-0961-43c7-b3f3-44ec95357c40",
    "name": "Cathedral Garden",
    "address": "143 Shankill Road",
    "postcode": "BT13 7AH",
    "hygiene_rating": 4,
    "cuisine": "British / Other",
    "tags": []
  },
  {
    "_id": "319ee8ef-8227-462a-8766-2e39974c1724",
    "name": "Blue Kitchen",
    "address": "126 Woodstock Road",
    "postcode": "BT2 1AE",
    "hygiene_rating": 3,
    "cuisine": "British / Other",
    "tags": []
  },
  {
    "_id": "177840f5-3d1a-409e-b808-6f715f835a63",
    "name": "Ormeau Noodle Lounge",
    "address": "221 York Street",
    "postcode": "BT10 7AL",
    "hygiene_rating": 2,
    "cuisine": "Chinese",
    "tags": [
      "noodles"
    ]
  },
  {
    "_id": "86b1c757-f0fd-4267-8477-a5bc3f9bce87",
    "name": "Golden Kitchen",
    "address": "161 Stranmillis Road",
    "postcode": "BT4 5AC",
    "hygiene_rating": 3,
    "cuisine": "British / Other",
    "tags": []
  },
  {
    "_id": "1d495d65-3eb0-4d3c-899d-310330476b1a",
    "name": "Golden Grill",
    "address": "242 Boucher Road",
    "postcode": "BT3 8AD",
    "hygiene_rating": 3,
    "cuisine": "Kebab",
    "tags": [
      "kebab"
    ]
  },
  {
    "_id": "adeb97c5-2a20-4d05-bf33-1f6fc5e7a1e5",
    "name": "Botanic Bistro",
    "address": "1 Botanic Avenue",
    "postcode": "BT7 8BG",
    "hygiene_rating": 5,
    "cuisine": "British / Other",
    "tags": []
  },
  {
    "_id": "13db6f3a-f32e-4526-8934-dd0d23206be8",
    "name": "Urban Wok Express",
    "address": "39 University Road",
    "postcode": "BT15 5AE",
    "hygiene_rating": 2,
    "cuisine": "Chinese",
    "tags": [
      "noodles"
    ],
    "lat": 54.623098,
    "lng": -5.938736
  },
  {
    "_id": "921a7671-d70e-413e-9844-c6a784918292",
    "name": "Golden Bistro",
    "address": "192 Royal Avenue",
    "postcode": "BT14 5BF",
    "hygiene_rating": 2,
    "cuisine": "British / Other",
    "tags": []
  },
  {
    "_id": "2a8541e5-f060-4393-87d7-278233fec08b",
    "name": "Golden Diner Hub",
    "address": "221 Boucher Road",
    "postcode": "BT8 2AH",
    "hygiene_rating": 5,
    "cuisine": "British / Other",
    "tags": []
  },
  {
    "_id": "99bd9194-b979-41e9-878f-f1133655d45e",
    "name": "Green Slice",
    "address": "129 Newtownards Road",
    "postcode": "BT9 8BF",
    "hygiene_rating": 2,
    "cuisine": "Italian",
    "tags": [
      "pizza"
    ]
  },
  {
    "_id": "44d348c8-5c72-4868-8110-d7db82f14b87",
    "name": "Dragon Bistro Lounge",
    "address": "170 York Street",
    "postcode": "BT7 9AB",
    "hygiene_rating": 5,
    "cuisine": "Chinese",
    "tags": [
      "noodles"
    ]
  },
  {
    "_id": "19299ca2-d8d4-4452-8fe4-9ad1e350ff9f",
    "name": "Little Burger",
    "address": "194 Ballygomartin Road",
    "postcode": "BT3 8BF",
    "hygiene_rating": 5,
    "cuisine": "Burgers",
    "tags": [
      "burger"
    ]
  },
  {
    "_id": "7fd56dca-43d3-4640-b204-7aa491a9c9e6",
    "name": "Papa Street Food Lounge",
    "address": "121 Antrim Road",
    "postcode": "BT6 7BA",
    "hygiene_rating": null,
    "cuisine": "British / Other",
    "tags": []
  },
  {
    "_id": "8e547f18-4e45-4b91-95d2-c1a21228de84",
    "name": "Golden Wok",
    "address": "65 Royal Avenue",
    "postcode": "BT1 2AH",
    "hygiene_rating": 1,
    "cuisine": "Chinese",
    "tags": [
      "noodles"
    ]
  },
  {
    "_id": "1d3ac54c-dd29-4462-868c-21d51f92aaa5",
    "name": "Little Street Food Lounge",
    "address": "88 Castlereagh Road",
    "postcode": "BT3 1AJ",
    "hygiene_rating": 3,
    "cuisine": "British / Other",
    "tags": []
  },
  {
    "_id": "e0055c3c-bf69-4213-81f1-2caf63c9a8fe",
    "name": "Spice Chippy Place",
    "address": "104 Ballygomartin Road",
    "postcode": "BT14 9AA",
    "hygiene_rating": 1,
    "cuisine": "Indian",
    "tags": [
      "curry",
      "spicy"
    ]
  },
  {
    "_id": "7b36e253-2f3f-4d2d-a15e-2026fc067ef9",
    "name": "Malone Bakery Express",
    "address": "93 Holywood Road",
    "postcode": "BT10 8BF",
    "hygiene_rating": 4,
    "cuisine": "Bakery",
    "tags": [
      "dessert"
    ]
  },
  {
    "_id": "715b332f-70fe-40e7-82fc-7a86233cdae1",
    "name": "Golden Café Corner",
    "address": "113 York Street",
    "postcode": "BT15 8AD",
    "hygiene_rating": 1,
    "cuisine": "Cafe",
    "tags": [
      "coffee",
      "breakfast"
    ]
  },
  {
    "_id": "78ae9091-5f6b-4300-b511-d4453d778dfb",
    "name": "Botanic Bistro Bar",
    "address": "105 Great Victoria Street",
    "postcode": "BT2 4AD",
    "hygiene_rating": 5,
    "cuisine": "British / Other",
    "tags": []
  },
  {
    "_id": "e0ad7360-8fb6-4a2e-a0da-2ed7099cb9b1",
    "name": "Malone Sushi Eatery",
    "address": "140 Ballygomartin Road",
    "postcode": "BT7 8BA",
    "hygiene_rating": 3,
    "cuisine": "Japanese",
    "tags": [
      "sushi"
    ]
  },
  {
    "_id": "de0d912e-946d-4e58-9dbf-178a2cc94173",
    "name": "Botanic Bakery",
    "address": "49 Woodstock Road",
    "postcode": "BT15 9AE",
    "hygiene_rating": 3,
    "cuisine": "Bakery",
    "tags": [
      "dessert"
    ]
  },
  {
    "_id": "dccbd7c4-c81d-48bc-a583-50545edc4a2a",
    "name": "Spice Burger",
    "address": "88 Cavehill Road",
    "postcode": "BT15 9AJ",
    "hygiene_rating": 3,
    "cuisine": "Indian",
    "tags": [
      "curry",
      "spicy"
    ]
  },
  {
    "_id": "31240b3e-af47-4736-af93-b3b9bbd4fbae",
    "name": "Dragon Bakery Lounge",
    "address": "185 Lisburn Road",
    "postcode": "BT3 7AE",
    "hygiene_rating": 2,
    "cuisine": "Chinese",
    "tags": [
      "noodles"
    ]
  },
  {
    "_id": "ff60319d-b0ee-413a-a10a-1e62740eda0a",
    "name": "Little Slice",
    "address": "149 Howard Street",
    "postcode": "BT11 8AE",
    "hygiene_rating": 5,
    "cuisine": "Italian",
    "tags": [
      "pizza"
    ],
    "lat": 54.584747,
    "lng": -5.980647
  },
  {
    "_id": "a3fca260-87b8-4215-b7a8-9646fb68dff4",
    "name": "Ormeau Wok",
    "address": "44 Botanic Avenue",
    "postcode": "BT3 2BD",
    "hygiene_rating": 2,
    "cuisine": "Chinese",
    "tags": [
      "noodles"
    ]
  },
  {
    "_id": "6a19e7cc-c5a6-49f1-8815-c2e5f6cb7855",
    "name": "Dragon House Hub",
    "address": "181 Holywood Road",
    "postcode": "BT5 7BG",
    "hygiene_rating": 5,
    "cuisine": "Chinese",
    "tags": [
      "noodles"
    ],
    "lat": 54.593039,
    "lng": -5.837126
  },
  {
    "_id": "976e6bc7-75eb-41d3-8270-50557d17ff01",
    "name": "Little Bakery",
    "address": "140 Malone Road",
    "postcode": "BT3 2BF",
    "hygiene_rating": null,
    "cuisine": "Bakery",
    "tags": [
      "dessert"
    ]
  },
  {
    "_id": "c5b9f92b-af9e-4fb4-a9fa-04c5b8a962da",
    "name": "Cathedral Wok",
    "address": "217 Castlereagh Road",
    "postcode": "BT5 4BD",
    "hygiene_rating": 3,
    "cuisine": "Chinese",
    "tags": [
      "noodles"
    ],
    "lat": 54.601136,
    "lng": -5.916539
  },
  {
    "_id": "05be12e9-a594-42de-affb-bb7c9cd66edf",
    "name": "Belfast Burger Bar",
    "address": "191 Royal Avenue",
    "postcode": "BT8 5AH",
    "hygiene_rating": 2,
    "cuisine": "Burgers",
    "tags": [
      "burger"
    ]
  },
  {
    "_id": "fdfd17f4-8eb9-4cdc-a210-eee5d0742252",
    "name": "Blue Kitchen Co.",
    "address": "148 Ravenhill Road",
    "postcode": "BT5 5AA",
    "hygiene_rating": 3,
    "cuisine": "British / Other",
    "tags": [],
    "lat": 54.596531,
    "lng": -5.889322
  },
  {
    "_id": "11df8459-54e2-4ebd-86fd-676f4ab9087e",
    "name": "Golden Slice",
    "address": "149 Ormeau Road",
    "postcode": "BT6 3AC",
    "hygiene_rating": 5,
    "cuisine": "Italian",
    "tags": [
      "pizza"
    ]
  },
  {
    "_id": "134010ab-b12f-465c-a276-9f45d56de02a",
    "name": "City Diner",
    "address": "65 Royal Avenue",
    "postcode": "BT11 3AD",
    "hygiene_rating": 1,
    "cuisine": "British / Other",
    "tags": []
  },
  {
    "_id": "a4f0e764-5956-4b03-8000-65035157ae8a",
    "name": "Harbour Wok Corner",
    "address": "225 Great Victoria Street",
    "postcode": "BT6 9AJ",
    "hygiene_rating": 3,
    "cuisine": "Chinese",
    "tags": [
      "noodles"
    ]
  },
  {
    "_id": "c4fafb06-fdd8-4fab-a5de-24c81c4e16b1",
    "name": "Papa Burger",
    "address": "248 Albertbridge Road",
    "postcode": "BT13 5BA",
    "hygiene_rating": 4,
    "cuisine": "Burgers",
    "tags": [
      "burger"
    ]
  },
  {
    "_id": "d0a062f2-e7b5-4e87-a765-63e66c8c7d16",
    "name": "Dragon Bakery",
    "address": "194 Falls Road",
    "postcode": "BT4 7BB",
    "hygiene_rating": 2,
    "cuisine": "Chinese",
    "tags": [
      "noodles"
    ]
  },
  {
    "_id": "7de30f1a-d08c-43f3-b8dd-4f24335a5e5e",
    "name": "City Kitchen",
    "address": "7 Albertbridge Road",
    "postcode": "BT10 9BA",
    "hygiene_rating": 2,
    "cuisine": "British / Other",
    "tags": []
  },
  {
    "_id": "88b633b9-beea-45ea-973a-c6a7e1e87c46",
    "name": "Botanic Garden",
    "address": "233 Castlereagh Road",
    "postcode": "BT12 5BE",
    "hygiene_rating": 2,
    "cuisine": "British / Other",
    "tags": []
  },
  {
    "_id": "e8d61d77-b6d4-4b5a-adee-71e39bab2c4f",
    "name": "Belfast Wing Place",
    "address": "95 Castlereagh Road",
    "postcode": "BT11 5BD",
    "hygiene_rating": 3,
    "cuisine": "British / Other",
    "tags": []
  },
  {
    "_id": "6d3e5844-912b-4da9-8825-4e6d874dfa28",
    "name": "Mama Grill",
    "address": "127 York Street",
    "postcode": "BT2 2AH",
    "hygiene_rating": 3,
    "cuisine": "Kebab",
    "tags": [
      "kebab"
    ]
  },
  {
    "_id": "6755bba3-5441-4bf8-8e72-fc09dc344226",
    "name": "Mama Noodle Eatery",
    "address": "151 Cavehill Road",
    "postcode": "BT12 3BE",
    "hygiene_rating": 1,
    "cuisine": "Chinese",
    "tags": [
      "noodles"
    ]
  },
  {
    "_id": "fd162151-34b9-461e-8ae0-c4000ae17256",
    "name": "Green Diner",
    "address": "176 Shankill Road",
    "postcode": "BT6 9BB",
    "hygiene_rating": 1,
    "cuisine": "British / Other",
    "tags": [],
    "lat": 54.589037,
    "lng": -5.900184
  },
  {
    "_id": "9dcb20f5-0193-425b-9a14-d940756a80a8",
    "name": "Dragon Sushi",
    "address": "9 Newtownards Road",
    "postcode": "BT12 6AG",
    "hygiene_rating": 5,
    "cuisine": "Chinese",
    "tags": [
      "noodles"
    ],
    "lat": 54.59277,
    "lng": -5.959718
  },
  {
    "_id": "54882298-1fcf-49c1-814f-792165084bce",
    "name": "Harbour Diner",
    "address": "53 Howard Street",
    "postcode": "BT2 9AG",
    "hygiene_rating": 2,
    "cuisine": "British / Other",
    "tags": []
  },
  {
    "_id": "f372e873-cb62-4812-aa53-64a2ead00001",
    "name": "Belfast Burger Place",
    "address": "24 Castlereagh Road",
    "postcode": "BT11 4AA",
    "hygiene_rating": 1,
    "cuisine": "Burgers",
    "tags": [
      "burger"
    ]
  },
  {
    "_id": "35c16584-c8f2-4a65-a8e9-85346101ba52",
    "name": "Crown Bistro Bar",
    "address": "4 Falls Road",
    "postcode": "BT6 4BA",
    "hygiene_rating": 1,
    "cuisine": "British / Other",
    "tags": []
  },
  {
    "_id": "fbc72ab5-b247-4c1e-bcb0-bada5e6f1e78",
    "name": "Urban Diner Corner",
    "address": "1 Royal Avenue",
    "postcode": "BT5 3AE",
    "hygiene_rating": 3,
    "cuisine": "British / Other",
    "tags": []
  },
  {
    "_id": "d1d188e5-921b-43ab-924c-7230a3b0a0d4",
    "name": "Papa Burger Palace",
    "address": "30 Holywood Road",
    "postcode": "BT12 2BG",
    "hygiene_rating": 5,
    "cuisine": "Burgers",
    "tags": [
      "burger"
    ]
  },
  {
    "_id": "ad65c531-b2a6-486d-9594-f9c54d6696e4",
    "name": "City Tandoori",
    "address": "129 Castlereagh Road",
    "postcode": "BT4 1AL",
    "hygiene_rating": 5,
    "cuisine": "Indian",
    "tags": [
      "curry",
      "spicy"
    ],
    "lat": 54.59729,
    "lng": -5.890088
  },
  {
    "_id": "b8b482d3-2545-4572-a47c-414389b2b475",
    "name": "Green Garden",
    "address": "156 Donegall Road",
    "postcode": "BT3 2AE",
    "hygiene_rating": 5,
    "cuisine": "British / Other",
    "tags": []
  },
  {
    "_id": "9bdf18a7-9e8c-443b-a12e-c46a1a0763d6",
    "name": "Little Grill",
    "address": "110 Woodstock Road",
    "postcode": "BT11 2BG",
    "hygiene_rating": 5,
    "cuisine": "Kebab",
    "tags": [
      "kebab"
    ]
  },
  {
    "_id": "fde459c6-da59-46ba-b39b-42fa6335a2c5",
    "name": "Malone Chippy Co.",
    "address": "76 Holywood Road",
    "postcode": "BT8 9BE",
    "hygiene_rating": 2,
    "cuisine": "Fish & Chips",
    "tags": [
      "fish",
      "chips"
    ]
  },
  {
    "_id": "dfa5c954-08a8-4c68-9ef2-6a3ef3cf2f15",
    "name": "Dragon Pizza",
    "address": "111 Stranmillis Road",
    "postcode": "BT8 4BE",
    "hygiene_rating": null,
    "cuisine": "Italian",
    "tags": [
      "pizza"
    ]
  },
  {
    "_id": "15020e2c-2a49-4b4a-82e1-7defae4d9962",
    "name": "Blue Garden Place",
    "address": "111 Antrim Road",
    "postcode": "BT2 6AE",
    "hygiene_rating": 3,
    "cuisine": "British / Other",
    "tags": []
  },
  {
    "_id": "f7471fd8-c105-48c2-ad61-3b86898590e2",
    "name": "Green Noodle Place",
    "address": "110 Donegall Road",
    "postcode": "BT6 5BB",
    "hygiene_rating": 3,
    "cuisine": "Chinese",
    "tags": [
      "noodles"
    ]
  },
  {
    "_id": "a57e3b3e-6b38-4348-a24d-da192fd3d985",
    "name": "Golden Street Food",
    "address": "85 Great Victoria Street",
    "postcode": "BT11 2BE",
    "hygiene_rating": null,
    "cuisine": "British / Other",
    "tags": []
  },
  {
    "_id": "4a5992ed-4cef-4149-bd87-723ca54bc5eb",
    "name": "Crown Street Food Palace",
    "address": "250 Great Victoria Street",
    "postcode": "BT13 9AA",
    "hygiene_rating": 2,
    "cuisine": "British / Other",
    "tags": []
  },
  {
    "_id": "c5106d00-3534-4c9c-86a1-2fd1b7e563a2",
    "name": "Blue Diner",
    "address": "217 Ravenhill Road",
    "postcode": "BT9 6AD",
    "hygiene_rating": 4,
    "cuisine": "British / Other",
    "tags": []
  },
  {
    "_id": "b28d798d-770c-41a2-b294-0fa0a3e545e1",
    "name": "Raven Grill",
    "address": "80 Royal Avenue",
    "postcode": "BT6 2AG",
    "hygiene_rating": 3,
    "cuisine": "Kebab",
    "tags": [
      "kebab"
    ]
  },
  {
    "_id": "62c6b038-cdfe-4539-991a-def4a213996d",
    "name": "Crown Wing Hub",
    "address": "90 Donegall Road",
    "postcode": "BT1 3AE",
    "hygiene_rating": 2,
    "cuisine": "British / Other",
    "tags": []
  },
  {
    "_id": "5610f694-f600-4415-a6de-66dead7201db",
    "name": "Belfast Garden Bar",
    "address": "192 Antrim Road",
    "postcode": "BT9 4BD",
    "hygiene_rating": 4,
    "cuisine": "British / Other",
    "tags": []
  },
  {
    "_id": "528542b9-e756-476d-8eb6-d368d31203dd",
    "name": "Papa Grill",
    "address": "114 Newtownards Road",
    "postcode": "BT11 7BG",
    "hygiene_rating": 2,
    "cuisine": "Kebab",
    "tags": [
      "kebab"
    ]
  },
  {
    "_id": "4ae5048e-8eb5-46f3-9750-5a035acbaae6",
    "name": "Botanic Sushi",
    "address": "60 Falls Road",
    "postcode": "BT8 5BF",
    "hygiene_rating": 5,
    "cuisine": "Japanese",
    "tags": [
      "sushi"
    ]
  },
  {
    "_id": "9fa51d3f-e63a-4f5c-8e35-d830c7b678b2",
    "name": "Green Chippy Hub",
    "address": "84 Shore Road",
    "postcode": "BT13 2AB",
    "hygiene_rating": 3,
    "cuisine": "Fish & Chips",
    "tags": [
      "fish",
      "chips"
    ],
    "lat": 54.603073,
    "lng": -5.936807
  },
  {
    "_id": "8a413fa9-4dd5-4240-9a0c-9d4f68199a34",
    "name": "Green Wok Eatery",
    "address": "89 Shankill Road",
    "postcode": "BT7 2AL",
    "hygiene_rating": 1,
    "cuisine": "Chinese",
    "tags": [
      "noodles"
    ]
  },
  {
    "_id": "d2bd5a39-3155-497f-8bb0-809764641fe0",
    "name": "Blue Tandoori",
    "address": "57 Ormeau Road",
    "postcode": "BT7 1AA",
    "hygiene_rating": 4,
    "cuisine": "Indian",
    "tags": [
      "curry",
      "spicy"
    ]
  },
  {
    "_id": "d2f13969-7d71-4fc0-be16-bc079e17b749",
    "name": "Cathedral Café",
    "address": "66 Ballygomartin Road",
    "postcode": "BT5 6AD",
    "hygiene_rating": 1,
    "cuisine": "Cafe",
    "tags": [
      "coffee",
      "breakfast"
    ],
    "lat": 54.584487,
    "lng": -5.887594
  },
  {
    "_id": "23941557-b05c-4a3d-8ec5-18826363485f",
    "name": "Blue Wok Palace",
    "address": "181 Great Victoria Street",
    "postcode": "BT4 9BB",
    "hygiene_rating": 2,
    "cuisine": "Chinese",
    "tags": [
      "noodles"
    ]
  },
  {
    "_id": "c501e911-922e-459c-9c04-283ba70610de",
    "name": "Belfast Grill Lounge",
    "address": "221 Antrim Road",
    "postcode": "BT6 7BD",
    "hygiene_rating": 5,
    "cuisine": "Kebab",
    "tags": [
      "kebab"
    ]
  },
  {
    "_id": "0836679e-43d8-4284-bad4-81b4dffd4300",
    "name": "Raven Kitchen Co.",
    "address": "135 Woodstock Road",
    "postcode": "BT2 7AL",
    "hygiene_rating": 5,
    "cuisine": "British / Other",
    "tags": []
  },
  {
    "_id": "a7f97909-542c-41c0-b01f-5bf08be37718",
    "name": "Harbour Diner Corner",
    "address": "131 Antrim Road",
    "postcode": "BT11 2AG",
    "hygiene_rating": 4,
    "cuisine": "British / Other",
    "tags": []
  },
  {
    "_id": "eed7b339-34ee-4b0e-800e-7ab5ef3ab0ad",
    "name": "Raven Slice Bar",
    "address": "44 Donegall Road",
    "postcode": "BT13 8BB",
    "hygiene_rating": 2,
    "cuisine": "Italian",
    "tags": [
      "pizza"
    ]
  },
  {
    "_id": "b632ca64-5293-4e8a-9b0b-27cd688421bc",
    "name": "City Curry",
    "address": "209 University Road",
    "postcode": "BT3 4AD",
    "hygiene_rating": 3,
    "cuisine": "Indian",
    "tags": [
      "curry",
      "spicy"
    ]
  },
  {
    "_id": "fdd25bd5-f910-4543-977b-0087fd38d5c9",
    "name": "Crown Café Corner",
    "address": "195 Ballygomartin Road",
    "postcode": "BT11 2AF",
    "hygiene_rating": 4,
    "cuisine": "Cafe",
    "tags": [
      "coffee",
      "breakfast"
    ]
  },
  {
    "_id": "a7980323-cc32-4adf-b425-b0f322c6826d",
    "name": "Blue Burger Palace",
    "address": "21 University Road",
    "postcode": "BT14 6BD",
    "hygiene_rating": null,
    "cuisine": "Burgers",
    "tags": [
      "burger"
    ],
    "lat": 54.610306,
    "lng": -5.936797
  },
  {
    "_id": "1f82ae9a-4e3c-499b-9b71-1305ee976431",
    "name": "Urban Diner",
    "address": "220 Sandy Row",
    "postcode": "BT13 7AB",
    "hygiene_rating": null,
    "cuisine": "British / Other",
    "tags": []
  },
  {
    "_id": "b66d993e-85e0-46d7-a5fa-de3e88283776",
    "name": "Cathedral Wing Bar",
    "address": "92 York Street",
    "postcode": "BT6 7AE",
    "hygiene_rating": 4,
    "cuisine": "British / Other",
    "tags": []
  },
  {
    "_id": "82afece8-ea77-43c4-957b-8d1f247488b7",
    "name": "Spice Wok",
    "address": "163 Ballygomartin Road",
    "postcode": "BT12 2BF",
    "hygiene_rating": 3,
    "cuisine": "Indian",
    "tags": [
      "curry",
      "spicy"
    ]
  },
  {
    "_id": "66071c05-575b-4d75-a2ef-85eda33e1818",
    "name": "Blue Pizza Place",
    "address": "162 Sandy Row",
    "postcode": "BT11 5AH",
    "hygiene_rating": 5,
    "cuisine": "Italian",
    "tags": [
      "pizza"
    ]
  },
  {
    "_id": "a6eb10cb-f7e8-468f-b814-c5205a719ed7",
    "name": "Green Garden Hub",
    "address": "152 Newtownards Road",
    "postcode": "BT1 6AC",
    "hygiene_rating": 5,
    "cuisine": "British / Other",
    "tags": []
  },
  {
    "_id": "4f2f6a1e-6c48-46de-bf3d-e0b57da46258",
    "name": "Blue Bakery",
    "address": "149 Ballygomartin Road",
    "postcode": "BT8 6BA",
    "hygiene_rating": 3,
    "cuisine": "Bakery",
    "tags": [
      "dessert"
    ],
    "lat": 54.547346,
    "lng": -5.898633
  },
  {
    "_id": "145f7417-c5c2-4614-98f5-a2ac3705a98c",
    "name": "Blue Noodle Corner",
    "address": "247 Albertbridge Road",
    "postcode": "BT1 3BA",
    "hygiene_rating": 3,
    "cuisine": "Chinese",
    "tags": [
      "noodles"
    ],
    "lat": 54.603228,
    "lng": -5.923783
  },
  {
    "_id": "5be21800-910b-4ef1-89c8-f1391fa58eba",
    "name": "Green Kitchen",
    "address": "183 Donegall Road",
    "postcode": "BT2 9AF",
    "hygiene_rating": 1,
    "cuisine": "British / Other",
    "tags": []
  },
  {
    "_id": "20d9a141-46d1-4150-ac5c-fa541af8c97f",
    "name": "Green Bakery Spot",
    "address": "20 York Street",
    "postcode": "BT11 2BD",
    "hygiene_rating": 5,
    "cuisine": "Bakery",
    "tags": [
      "dessert"
    ]
  },
  {
    "_id": "e700e732-adfe-446a-ad4b-f69d1eeb437f",
    "name": "Malone Grill Co.",
    "address": "49 University Road",
    "postcode": "BT6 8AE",
    "hygiene_rating": 1,
    "cuisine": "Kebab",
    "tags": [
      "kebab"
    ],
    "lat": 54.594329,
    "lng": -5.907943
  },
  {
    "_id": "f8fb455c-2b63-4cc2-bfe7-5e294fbfabe8",
    "name": "Botanic Bakery",
    "address": "134 Holywood Road",
    "postcode": "BT10 3BB",
    "hygiene_rating": null,
    "cuisine": "Bakery",
    "tags": [
      "dessert"
    ]
  },
  {
    "_id": "77830945-13e5-43ca-8ccc-fe0171b0116f",
    "name": "Dragon Pizza",
    "address": "65 York Street",
    "postcode": "BT12 3BA",
    "hygiene_rating": 2,
    "cuisine": "Italian",
    "tags": [
      "pizza"
    ]
  },
  {
    "_id": "9a749cd0-e283-43ec-b99e-e01554a764fa",
    "name": "Belfast Chippy",
    "address": "180 Malone Road",
    "postcode": "BT14 9AC",
    "hygiene_rating": 1,
    "cuisine": "Fish & Chips",
    "tags": [
      "fish",
      "chips"
    ]
  },
  {
    "_id": "4505fd94-e511-4f3a-b82a-edc9b905a062",
    "name": "Green Curry",
    "address": "14 Cavehill Road",
    "postcode": "BT7 9BB",
    "hygiene_rating": 4,
    "cuisine": "Indian",
    "tags": [
      "curry",
      "spicy"
    ]
  },
  {
    "_id": "861d4f25-05c7-41e2-82a1-01351be2514f",
    "name": "Cathedral Noodle Spot",
    "address": "154 Malone Road",
    "postcode": "BT1 6AC",
    "hygiene_rating": null,
    "cuisine": "Chinese",
    "tags": [
      "noodles"
    ]
  },
  {
    "_id": "40b1a846-ea8b-45c6-931a-103e9ed34771",
    "name": "Belfast Garden Bar",
    "address": "239 Donegall Road",
    "postcode": "BT2 6AE",
    "hygiene_rating": 3,
    "cuisine": "British / Other",
    "tags": []
  },
  {
    "_id": "18322dc7-8553-4b47-9743-5fcd97d1cb95",
    "name": "Raven Curry",
    "address": "249 Sandy Row",
    "postcode": "BT8 5BF",
    "hygiene_rating": 4,
    "cuisine": "Indian",
    "tags": [
      "curry",
      "spicy"
    ]
  },
  {
    "_id": "70351a7a-c02e-4fec-b625-b8b01f9fa6db",
    "name": "Cathedral Diner Bar",
    "address": "108 Sandy Row",
    "postcode": "BT11 8AC",
    "hygiene_rating": 2,
    "cuisine": "British / Other",
    "tags": []
  },
  {
    "_id": "eb199ad5-4e7e-4ab9-8eab-f8e9a0acddb1",
    "name": "Malone Diner Lounge",
    "address": "95 Stranmillis Road",
    "postcode": "BT11 8BF",
    "hygiene_rating": 4,
    "cuisine": "British / Other",
    "tags": []
  },
  {
    "_id": "bc0bf946-2857-4170-a5e8-5385e881b724",
    "name": "Golden Slice",
    "address": "179 Albertbridge Road",
    "postcode": "BT14 3BG",
    "hygiene_rating": 5,
    "cuisine": "Italian",
    "tags": [
      "pizza"
    ]
  },
  {
    "_id": "3b89c23b-885c-4774-b8a5-6a26e535331f",
    "name": "Little Curry Palace",
    "address": "171 Botanic Avenue",
    "postcode": "BT11 2BB",
    "hygiene_rating": 2,
    "cuisine": "Indian",
    "tags": [
      "curry",
      "spicy"
    ]
  },
  {
    "_id": "619f6df1-5aaf-4a05-af18-9d0ad891c382",
    "name": "Spice Bistro Eatery",
    "address": "213 Falls Road",
    "postcode": "BT7 2AH",
    "hygiene_rating": 3,
    "cuisine": "Indian",
    "tags": [
      "curry",
      "spicy"
    ]
  },
  {
    "_id": "d1a9cdf3-c9b9-4dac-9211-830e1c3b384f",
    "name": "Belfast Curry Bar",
    "address": "202 Ravenhill Road",
    "postcode": "BT2 6AH",
    "hygiene_rating": 5,
    "cuisine": "Indian",
    "tags": [
      "curry",
      "spicy"
    ]
  },
  {
    "_id": "1ecbdeb3-538b-4a44-883b-9afeaa560c2d",
    "name": "Crown Grill",
    "address": "142 Ravenhill Road",
    "postcode": "BT15 2AD",
    "hygiene_rating": 5,
    "cuisine": "Kebab",
    "tags": [
      "kebab"
    ]
  },
  {
    "_id": "b42d20a4-301d-4e94-877c-901c57885c43",
    "name": "Raven Tandoori Spot",
    "address": "47 York Street",
    "postcode": "BT4 6BG",
    "hygiene_rating": 4,
    "cuisine": "Indian",
    "tags": [
      "curry",
      "spicy"
    ]
  },
  {
    "_id": "d2068275-214b-4c66-b6b6-c9a115c09eeb",
    "name": "Mama Curry Palace",
    "address": "153 Falls Road",
    "postcode": "BT12 2AL",
    "hygiene_rating": 3,
    "cuisine": "Indian",
    "tags": [
      "curry",
      "spicy"
    ]
  },
  {
    "_id": "d160eac4-38ad-4b6f-a015-e51a2bdae15a",
    "name": "Green Grill Bar",
    "address": "227 Stranmillis Road",
    "postcode": "BT1 6AL",
    "hygiene_rating": 3,
    "cuisine": "Kebab",
    "tags": [
      "kebab"
    ]
  },
  {
    "_id": "667bf9d2-3e14-452b-adc5-6693b0b77537",
    "name": "Belfast Pizza Bar",
    "address": "166 Ballygomartin Road",
    "postcode": "BT4 5BB",
    "hygiene_rating": 3,
    "cuisine": "Italian",
    "tags": [
      "pizza"
    ]
  },
  {
    "_id": "c8e353b2-59d7-4bdd-9fc6-7a7490705444",
    "name": "Botanic House Hub",
    "address": "130 Shankill Road",
    "postcode": "BT13 9AB",
    "hygiene_rating": 1,
    "cuisine": "British / Other",
    "tags": []
  },
  {
    "_id": "417da424-66d0-4f74-b92a-1a710250fb9b",
    "name": "Dragon Street Food",
    "address": "35 Donegall Road",
    "postcode": "BT1 6BA",
    "hygiene_rating": 3,
    "cuisine": "Chinese",
    "tags": [
      "noodles"
    ]
  },
  {
    "_id": "c0bc7ac1-1b3b-493b-91c9-09ffa31627f4",
    "name": "Golden Chippy Spot",
    "address": "228 Cavehill Road",
    "postcode": "BT7 8BD",
    "hygiene_rating": null,
    "cuisine": "Fish & Chips",
    "tags": [
      "fish",
      "chips"
    ]
  },
  {
    "_id": "f93a08ec-ad0d-4daf-ae6b-f74c9c146416",
    "name": "Papa Sushi",
    "address": "237 Ravenhill Road",
    "postcode": "BT13 9AJ",
    "hygiene_rating": 4,
    "cuisine": "Japanese",
    "tags": [
      "sushi"
    ]
  },
  {
    "_id": "4cc4cd83-acfd-4bde-acf7-312f082dfc4d",
    "name": "Harbour Slice Co.",
    "address": "110 Boucher Road",
    "postcode": "BT3 8BB",
    "hygiene_rating": 5,
    "cuisine": "Italian",
    "tags": [
      "pizza"
    ]
  },
  {
    "_id": "d95e5a72-d6a3-4de2-aa7f-2dfa7857779a",
    "name": "Harbour House",
    "address": "42 Falls Road",
    "postcode": "BT3 3BF",
    "hygiene_rating": 1,
    "cuisine": "British / Other",
    "tags": []
  },
  {
    "_id": "ef1417e2-64b5-4bc2-bb8f-13c0daa5083c",
    "name": "Spice Wok Co.",
    "address": "140 Botanic Avenue",
    "postcode": "BT5 6AD",
    "hygiene_rating": 2,
    "cuisine": "Indian",
    "tags": [
      "curry",
      "spicy"
    ],
    "lat": 54.584487,
    "lng": -5.887594
  },
  {
    "_id": "2d974f41-c9ba-4805-bf96-992a972fd34f",
    "name": "Green Grill Express",
    "address": "166 Ballygomartin Road",
    "postcode": "BT6 6BD",
    "hygiene_rating": 2,
    "cuisine": "Kebab",
    "tags": [
      "kebab"
    ]
  },
  {
    "_id": "0a621b12-f8fd-4551-8913-aea33dcb2e12",
    "name": "Belfast Curry",
    "address": "174 Shore Road",
    "postcode": "BT3 1AE",
    "hygiene_rating": 3,
    "cuisine": "Indian",
    "tags": [
      "curry",
      "spicy"
    ]
  },
  {
    "_id": "1af7587b-9ede-470a-a196-c3fcbf3900e2",
    "name": "Golden House",
    "address": "96 Ravenhill Road",
    "postcode": "BT8 2AE",
    "hygiene_rating": 3,
    "cuisine": "British / Other",
    "tags": []
  },
  {
    "_id": "1e119989-d6f9-4709-928f-a0fd04ff3fe9",
    "name": "City Noodle Hub",
    "address": "246 Sandy Row",
    "postcode": "BT2 1AF",
    "hygiene_rating": 5,
    "cuisine": "Chinese",
    "tags": [
      "noodles"
    ]
  },
  {
    "_id": "0ae727e6-ee01-492f-8afc-8bc9ae974ffe",
    "name": "Cathedral Sushi Corner",
    "address": "116 Antrim Road",
    "postcode": "BT3 8AC",
    "hygiene_rating": 4,
    "cuisine": "Japanese",
    "tags": [
      "sushi"
    ]
  },
  {
    "_id": "6fb2801b-2165-40c0-98be-bc4c479f5a02",
    "name": "Papa Curry",
    "address": "52 Shankill Road",
    "postcode": "BT13 3AH",
    "hygiene_rating": 4,
    "cuisine": "Indian",
    "tags": [
      "curry",
      "spicy"
    ]
  },
  {
    "_id": "9c54e634-4e85-4fbe-a529-392d3595b7b3",
    "name": "Harbour Curry",
    "address": "139 Great Victoria Street",
    "postcode": "BT5 5AF",
    "hygiene_rating": 5,
    "cuisine": "Indian",
    "tags": [
      "curry",
      "spicy"
    ]
  },
  {
    "_id": "46bac864-98bc-4084-888a-db96881ab4d9",
    "name": "Spice Garden Lounge",
    "address": "106 Holywood Road",
    "postcode": "BT13 7AC",
    "hygiene_rating": 3,
    "cuisine": "Indian",
    "tags": [
      "curry",
      "spicy"
    ]
  },
  {
    "_id": "4d774f18-bc3f-41d2-b634-94f4af701dd9",
    "name": "Blue Wing Co.",
    "address": "120 Ravenhill Road",
    "postcode": "BT13 9AE",
    "hygiene_rating": 2,
    "cuisine": "British / Other",
    "tags": []
  },
  {
    "_id": "7631aa32-3a84-483e-a9ff-450c0a66e326",
    "name": "Papa Bistro Express",
    "address": "243 Ravenhill Road",
    "postcode": "BT9 5AC",
    "hygiene_rating": 5,
    "cuisine": "British / Other",
    "tags": []
  },
  {
    "_id": "21a1e1c4-9d43-4aaa-9f29-8f1034357731",
    "name": "Mama Wok",
    "address": "213 Ormeau Road",
    "postcode": "BT2 9AE",
    "hygiene_rating": 5,
    "cuisine": "Chinese",
    "tags": [
      "noodles"
    ]
  },
  {
    "_id": "6424fb22-e269-4ff3-ad46-f46cd11a1587",
    "name": "Harbour Garden Eatery",
    "address": "33 Ravenhill Road",
    "postcode": "BT15 9AF",
    "hygiene_rating": 4,
    "cuisine": "British / Other",
    "tags": []
  },
  {
    "_id": "d353bd7b-3483-4bf3-b4ac-973a2e00e527",
    "name": "Urban Pizza Hub",
    "address": "137 Royal Avenue",
    "postcode": "BT2 9AF",
    "hygiene_rating": 2,
    "cuisine": "Italian",
    "tags": [
      "pizza"
    ]
  },
  {
    "_id": "2ca53a07-e2cf-4d4b-a05b-40e62433488b",
    "name": "Malone Slice",
    "address": "124 York Street",
    "postcode": "BT4 7AL",
    "hygiene_rating": 5,
    "cuisine": "Italian",
    "tags": [
      "pizza"
    ]
  },
  {
    "_id": "fe17c281-02fb-4625-bf77-590361afecf1",
    "name": "Little Garden Co.",
    "address": "167 Newtownards Road",
    "postcode": "BT4 7AA",
    "hygiene_rating": 5,
    "cuisine": "British / Other",
    "tags": []
  },
  {
    "_id": "b8bb31a0-30a6-4b49-b3f6-f74736b340d5",
    "name": "Spice Grill Palace",
    "address": "119 Albertbridge Road",
    "postcode": "BT4 6AE",
    "hygiene_rating": null,
    "cuisine": "Indian",
    "tags": [
      "curry",
      "spicy"
    ]
  },
  {
    "_id": "6a4998a2-77a5-4f69-812d-d6db0e23c340",
    "name": "Harbour Curry",
    "address": "195 Falls Road",
    "postcode": "BT6 9AD",
    "hygiene_rating": null,
    "cuisine": "Indian",
    "tags": [
      "curry",
      "spicy"
    ]
  },
  {
    "_id": "98c96b0f-98e0-47bc-97c9-93ae14078910",
    "name": "Raven Diner",
    "address": "209 Botanic Avenue",
    "postcode": "BT6 6AG",
    "hygiene_rating": 4,
    "cuisine": "British / Other",
    "tags": []
  },
  {
    "_id": "a78c51be-a880-4b4a-bddd-f07063f632d6",
    "name": "Botanic Bakery Lounge",
    "address": "37 Sandy Row",
    "postcode": "BT2 1AL",
    "hygiene_rating": 4,
    "cuisine": "Bakery",
    "tags": [
      "dessert"
    ]
  },
  {
    "_id": "38016710-0a8b-493b-8952-59a0e06ffddb",
    "name": "Papa Sushi",
    "address": "128 Castlereagh Road",
    "postcode": "BT15 5BG",
    "hygiene_rating": 1,
    "cuisine": "Japanese",
    "tags": [
      "sushi"
    ],
    "lat": 54.619849,
    "lng": -5.940015
  },
  {
    "_id": "85dcce6b-757c-42f8-9850-1b26dc8cd01c",
    "name": "Dragon Wok Hub",
    "address": "94 Shore Road",
    "postcode": "BT13 7BB",
    "hygiene_rating": 1,
    "cuisine": "Chinese",
    "tags": [
      "noodles"
    ]
  },
  {
    "_id": "15a67dea-3034-4229-ab9b-5b930606c8f8",
    "name": "Cathedral Sushi",
    "address": "173 University Road",
    "postcode": "BT8 5AA",
    "hygiene_rating": 3,
    "cuisine": "Japanese",
    "tags": [
      "sushi"
    ]
  },
  {
    "_id": "9b351a53-2052-4a71-8a83-49f8cf81126d",
    "name": "Spice Noodle",
    "address": "56 Sandy Row",
    "postcode": "BT10 6AB",
    "hygiene_rating": 1,
    "cuisine": "Indian",
    "tags": [
      "curry",
      "spicy"
    ]
  },
  {
    "_id": "bd546dfa-d28a-43b4-bdf6-ed44c23d1b19",
    "name": "Ormeau Bakery",
    "address": "212 Newtownards Road",
    "postcode": "BT10 2AE",
    "hygiene_rating": 2,
    "cuisine": "Bakery",
    "tags": [
      "dessert"
    ]
  },
  {
    "_id": "2b30c770-d374-435e-9d42-88c662a9a5cf",
    "name": "Belfast Curry",
    "address": "143 Donegall Road",
    "postcode": "BT6 3AG",
    "hygiene_rating": 2,
    "cuisine": "Indian",
    "tags": [
      "curry",
      "spicy"
    ]
  },
  {
    "_id": "9f25e44d-891e-44c8-8d70-4fc60d6951ff",
    "name": "Belfast Grill",
    "address": "93 Stranmillis Road",
    "postcode": "BT9 5AC",
    "hygiene_rating": 4,
    "cuisine": "Kebab",
    "tags": [
      "kebab"
    ]
  },
  {
    "_id": "3ea23168-4ab4-4d47-bf87-285571e3f6a7",
    "name": "Green House",
    "address": "36 Holywood Road",
    "postcode": "BT6 6AF",
    "hygiene_rating": 4,
    "cuisine": "British / Other",
    "tags": []
  },
  {
    "_id": "57328be2-4c75-4b2c-af62-8b45b759677e",
    "name": "Little Curry Place",
    "address": "150 Cavehill Road",
    "postcode": "BT5 1BG",
    "hygiene_rating": 5,
    "cuisine": "Indian",
    "tags": [
      "curry",
      "spicy"
    ]
  },
  {
    "_id": "3c5753e6-6405-442c-9cc8-cb6ba3a8a6e8",
    "name": "Cathedral Street Food Eatery",
    "address": "126 Great Victoria Street",
    "postcode": "BT12 5BG",
    "hygiene_rating": 3,
    "cuisine": "British / Other",
    "tags": []
  },
  {
    "_id": "9405c29a-e098-4d93-856b-da30700ad7f2",
    "name": "Botanic Grill",
    "address": "29 Boucher Road",
    "postcode": "BT4 1BF",
    "hygiene_rating": null,
    "cuisine": "Kebab",
    "tags": [
      "kebab"
    ]
  },
  {
    "_id": "1bc45ad7-6dee-42c1-9d75-e41d3c891642",
    "name": "Blue Pizza Eatery",
    "address": "62 Howard Street",
    "postcode": "BT12 3AL",
    "hygiene_rating": 4,
    "cuisine": "Italian",
    "tags": [
      "pizza"
    ]
  },
  {
    "_id": "ed67644a-7445-446a-801c-b6b6dd2d417f",
    "name": "Mama Tandoori Spot",
    "address": "123 Malone Road",
    "postcode": "BT9 7BA",
    "hygiene_rating": 3,
    "cuisine": "Indian",
    "tags": [
      "curry",
      "spicy"
    ],
    "lat": 54.585347,
    "lng": -5.947991
  },
  {
    "_id": "46b24970-56df-49cb-b3d0-887bc2eb1600",
    "name": "Little Garden Express",
    "address": "141 Falls Road",
    "postcode": "BT12 9BE",
    "hygiene_rating": 2,
    "cuisine": "British / Other",
    "tags": []
  },
  {
    "_id": "783d3638-1802-4266-86a6-694cd7faa650",
    "name": "Green Pizza Spot",
    "address": "198 Malone Road",
    "postcode": "BT14 5BG",
    "hygiene_rating": 4,
    "cuisine": "Italian",
    "tags": [
      "pizza"
    ]
  },
  {
    "_id": "eaa7ac13-218f-42fb-806d-da220a89e99f",
    "name": "Botanic Burger",
    "address": "242 Sandy Row",
    "postcode": "BT5 5AG",
    "hygiene_rating": 5,
    "cuisine": "Burgers",
    "tags": [
      "burger"
    ],
    "lat": 54.593755,
    "lng": -5.888305
  },
  {
    "_id": "43285cc1-fa32-4801-b267-1cb49b98a269",
    "name": "Raven House Express",
    "address": "129 Cavehill Road",
    "postcode": "BT13 8AB",
    "hygiene_rating": 5,
    "cuisine": "British / Other",
    "tags": []
  },
  {
    "_id": "aa5ac337-a9bc-44f2-aafe-cd841bf0984b",
    "name": "City House Hub",
    "address": "21 Boucher Road",
    "postcode": "BT6 8AJ",
    "hygiene_rating": 5,
    "cuisine": "British / Other",
    "tags": []
  },
  {
    "_id": "bf17a679-b2df-4efc-b466-bbf8f288e7aa",
    "name": "Blue Chippy Eatery",
    "address": "71 Shore Road",
    "postcode": "BT5 2BD",
    "hygiene_rating": 4,
    "cuisine": "Fish & Chips",
    "tags": [
      "fish",
      "chips"
    ]
  },
  {
    "_id": "bb4c0877-7382-4c2b-947b-144f4cf19e4d",
    "name": "Botanic Diner Eatery",
    "address": "164 Sandy Row",
    "postcode": "BT4 1AD",
    "hygiene_rating": 4,
    "cuisine": "British / Other",
    "tags": [],
    "lat": 54.59907,
    "lng": -5.901014
  },
  {
    "_id": "cad61774-2ebe-4b94-9bcf-ac1ef9ff4e5a",
    "name": "Blue Café Eatery",
    "address": "239 Newtownards Road",
    "postcode": "BT9 5AE",
    "hygiene_rating": 2,
    "cuisine": "Cafe",
    "tags": [
      "coffee",
      "breakfast"
    ],
    "lat": 54.577931,
    "lng": -5.933531
  },
  {
    "_id": "97003de8-04c1-46a2-93f1-a535e06fa4f8",
    "name": "Harbour Sushi Corner",
    "address": "247 Lisburn Road",
    "postcode": "BT9 3BE",
    "hygiene_rating": 1,
    "cuisine": "Japanese",
    "tags": [
      "sushi"
    ]
  },
  {
    "_id": "5ba42a4c-a48b-48fb-b29a-604640702d0d",
    "name": "Blue Sushi",
    "address": "247 Ballygomartin Road",
    "postcode": "BT5 6AL",
    "hygiene_rating": 1,
    "cuisine": "Japanese",
    "tags": [
      "sushi"
    ],
    "lat": 54.585021,
    "lng": -5.88571
  },
  {
    "_id": "3e4429aa-98db-46ea-b067-0f16ecbd778c",
    "name": "Golden Garden",
    "address": "137 Sandy Row",
    "postcode": "BT12 1AF",
    "hygiene_rating": 4,
    "cuisine": "British / Other",
    "tags": []
  },
  {
    "_id": "7aece384-efad-4791-9d71-172cb99be93e",
    "name": "Ormeau Noodle",
    "address": "10 Ormeau Road",
    "postcode": "BT3 6BG",
    "hygiene_rating": 3,
    "cuisine": "Chinese",
    "tags": [
      "noodles"
    ]
  },
  {
    "_id": "878f0bd8-67cf-4996-9a30-e8da9e62261d",
    "name": "Malone Tandoori Corner",
    "address": "120 Holywood Road",
    "postcode": "BT5 4AD",
    "hygiene_rating": null,
    "cuisine": "Indian",
    "tags": [
      "curry",
      "spicy"
    ]
  },
  {
    "_id": "44e9de12-a29a-4a4f-a6e8-1990aaaa044d",
    "name": "Little Slice",
    "address": "238 Shankill Road",
    "postcode": "BT6 5BF",
    "hygiene_rating": 1,
    "cuisine": "Italian",
    "tags": [
      "pizza"
    ]
  },
  {
    "_id": "55461b0f-e837-4521-b8b0-42ec973da622",
    "name": "Papa Bakery",
    "address": "48 Boucher Road",
    "postcode": "BT1 6AL",
    "hygiene_rating": 2,
    "cuisine": "Bakery",
    "tags": [
      "dessert"
    ]
  },
  {
    "_id": "7a4ab319-4458-4de5-a766-9e3190e21365",
    "name": "Botanic Grill",
    "address": "135 Botanic Avenue",
    "postcode": "BT11 7AE",
    "hygiene_rating": 3,
    "cuisine": "Kebab",
    "tags": [
      "kebab"
    ]
  },
  {
    "_id": "140bcfd2-2d8e-46f6-a5b0-798d77636975",
    "name": "Cathedral Noodle",
    "address": "248 Cavehill Road",
    "postcode": "BT3 4AE",
    "hygiene_rating": 3,
    "cuisine": "Chinese",
    "tags": [
      "noodles"
    ]
  },
  {
    "_id": "caced6a4-d0f1-4632-a810-0a92295c94ef",
    "name": "Ormeau Pizza",
    "address": "142 Holywood Road",
    "postcode": "BT1 7BG",
    "hygiene_rating": 1,
    "cuisine": "Italian",
    "tags": [
      "pizza"
    ]
  },
  {
    "_id": "40bc383f-adf9-4793-ba32-797b569825a8",
    "name": "Belfast Kitchen Corner",
    "address": "83 Albertbridge Road",
    "postcode": "BT15 4AA",
    "hygiene_rating": 5,
    "cuisine": "British / Other",
    "tags": [],
    "lat": 54.632846,
    "lng": -5.931335
  },
  {
    "_id": "33bbe206-8f5a-4a73-b9be-e517b038df7a",
    "name": "Urban Bistro",
    "address": "230 University Road",
    "postcode": "BT7 7BA",
    "hygiene_rating": 2,
    "cuisine": "British / Other",
    "tags": []
  },
  {
    "_id": "3b3f14dc-8a0c-47f4-ba31-5f99d3035b6f",
    "name": "Belfast Diner Hub",
    "address": "78 Donegall Road",
    "postcode": "BT10 1AJ",
    "hygiene_rating": 1,
    "cuisine": "British / Other",
    "tags": []
  },
  {
    "_id": "726a6bb7-543e-49b5-b1f9-abb53aea1f93",
    "name": "City Diner Place",
    "address": "79 Castlereagh Road",
    "postcode": "BT3 7AL",
    "hygiene_rating": 5,
    "cuisine": "British / Other",
    "tags": []
  },
  {
    "_id": "1df1409b-8ad7-4af2-9c6f-0890a9ee203a",
    "name": "Papa Bakery",
    "address": "162 Albertbridge Road",
    "postcode": "BT3 3AC",
    "hygiene_rating": 5,
    "cuisine": "Bakery",
    "tags": [
      "dessert"
    ]
  },
  {
    "_id": "d9ea92da-b72e-47e0-ad83-b54d78a053d5",
    "name": "Dragon Slice Express",
    "address": "246 Sandy Row",
    "postcode": "BT3 8AE",
    "hygiene_rating": 5,
    "cuisine": "Italian",
    "tags": [
      "pizza"
    ]
  },
  {
    "_id": "12ab3eef-41d9-435d-9b0b-0fb317039ae0",
    "name": "Ormeau Noodle",
    "address": "68 Shankill Road",
    "postcode": "BT13 5BF",
    "hygiene_rating": 4,
    "cuisine": "Chinese",
    "tags": [
      "noodles"
    ]
  },
  {
    "_id": "b5593517-8e42-4101-92a4-77d42fba88e4",
    "name": "Mama Bistro",
    "address": "231 Shore Road",
    "postcode": "BT10 6AB",
    "hygiene_rating": 3,
    "cuisine": "British / Other",
    "tags": []
  },
  {
    "_id": "4abedf5a-07aa-40aa-9f3c-2d279963b2d3",
    "name": "Golden Curry",
    "address": "71 Cavehill Road",
    "postcode": "BT11 1AC",
    "hygiene_rating": 1,
    "cuisine": "Indian",
    "tags": [
      "curry",
      "spicy"
    ]
  },
  {
    "_id": "e8be1f79-c430-4409-b776-e69f2b5dc40b",
    "name": "City Wok",
    "address": "194 Albertbridge Road",
    "postcode": "BT9 4AH",
    "hygiene_rating": 1,
    "cuisine": "Chinese",
    "tags": [
      "noodles"
    ]
  },
  {
    "_id": "ffd3b7d8-7d4c-4b36-adad-e7400b4d2f70",
    "name": "Spice Tandoori Spot",
    "address": "235 Antrim Road",
    "postcode": "BT10 2AB",
    "hygiene_rating": 3,
    "cuisine": "Indian",
    "tags": [
      "curry",
      "spicy"
    ]
  },
  {
    "_id": "4feb2977-8eb5-4959-ad11-be47342e4bb7",
    "name": "Raven Bakery",
    "address": "119 Great Victoria Street",
    "postcode": "BT11 5AA",
    "hygiene_rating": 4,
    "cuisine": "Bakery",
    "tags": [
      "dessert"
    ]
  },
  {
    "_id": "fd580ecb-e46a-41d7-a413-5becdc52ecee",
    "name": "Urban Street Food Eatery",
    "address": "208 Castlereagh Road",
    "postcode": "BT1 8AE",
    "hygiene_rating": 3,
    "cuisine": "British / Other",
    "tags": []
  },
  {
    "_id": "b1a552a1-591f-48e6-b536-f34c515ce46a",
    "name": "Malone Tandoori Eatery",
    "address": "43 Falls Road",
    "postcode": "BT6 9BF",
    "hygiene_rating": 2,
    "cuisine": "Indian",
    "tags": [
      "curry",
      "spicy"
    ]
  },
  {
    "_id": "303ec5c1-ecd9-4864-97bf-845a615cb09d",
    "name": "Spice Pizza",
    "address": "240 Antrim Road",
    "postcode": "BT8 1AL",
    "hygiene_rating": 4,
    "cuisine": "Italian",
    "tags": [
      "pizza"
    ]
  },
  {
    "_id": "1270a2de-bf86-4a9e-ad68-0ca337a68002",
    "name": "Papa House",
    "address": "166 Shore Road",
    "postcode": "BT7 6BD",
    "hygiene_rating": 5,
    "cuisine": "British / Other",
    "tags": []
  },
  {
    "_id": "12d64e44-8e62-4e2b-8ee4-5dbf7b32b040",
    "name": "Malone Noodle",
    "address": "58 Shore Road",
    "postcode": "BT14 1AA",
    "hygiene_rating": 5,
    "cuisine": "Chinese",
    "tags": [
      "noodles"
    ]
  },
  {
    "_id": "10ce3276-7964-40a0-a7eb-1927b0891dab",
    "name": "Crown Wing",
    "address": "19 Howard Street",
    "postcode": "BT1 7BB",
    "hygiene_rating": 5,
    "cuisine": "British / Other",
    "tags": []
  },
  {
    "_id": "2a5054b9-6f85-4518-9f74-5d1ae20f4f1b",
    "name": "Spice Kitchen",
    "address": "154 Castlereagh Road",
    "postcode": "BT11 1AH",
    "hygiene_rating": 5,
    "cuisine": "Indian",
    "tags": [
      "curry",
      "spicy"
    ]
  },
  {
    "_id": "2f85c0cd-8b2c-4dec-9c31-bbc47350e94e",
    "name": "Cathedral Diner",
    "address": "148 Shore Road",
    "postcode": "BT6 6AH",
    "hygiene_rating": 5,
    "cuisine": "British / Other",
    "tags": []
  },
  {
    "_id": "ddcd05cc-3e0a-4a39-bb9c-6692f4b8b22f",
    "name": "Belfast Noodle Eatery",
    "address": "168 Falls Road",
    "postcode": "BT14 6AD",
    "hygiene_rating": 3,
    "cuisine": "Chinese",
    "tags": [
      "noodles"
    ],
    "lat": 54.60964,
    "lng": -5.945159
  },
  {
    "_id": "59bfc76a-00ef-428f-a95e-e7ca1b9decb5",
    "name": "Green Pizza Palace",
    "address": "64 Sandy Row",
    "postcode": "BT8 6AE",
    "hygiene_rating": 5,
    "cuisine": "Italian",
    "tags": [
      "pizza"
    ]
  },
  {
    "_id": "41a02eb5-379d-485a-8488-d868862b8e4c",
    "name": "Mama Tandoori Hub",
    "address": "16 Newtownards Road",
    "postcode": "BT9 3BE",
    "hygiene_rating": 3,
    "cuisine": "Indian",
    "tags": [
      "curry",
      "spicy"
    ]
  },
  {
    "_id": "46a9f01f-cd8f-4257-a480-d249135f73f1",
    "name": "Raven Wok Palace",
    "address": "194 Botanic Avenue",
    "postcode": "BT9 8AH",
    "hygiene_rating": 3,
    "cuisine": "Chinese",
    "tags": [
      "noodles"
    ]
  },
  {
    "_id": "b21f8bcc-5e1f-41b1-a1d3-b11932d27fe0",
    "name": "Urban Noodle",
    "address": "83 Great Victoria Street",
    "postcode": "BT13 5BD",
    "hygiene_rating": 5,
    "cuisine": "Chinese",
    "tags": [
      "noodles"
    ]
  },
  {
    "_id": "fd47dac6-a1dc-4d7e-8746-45197627fe5c",
    "name": "Spice Café",
    "address": "186 Howard Street",
    "postcode": "BT11 9AG",
    "hygiene_rating": 5,
    "cuisine": "Indian",
    "tags": [
      "curry",
      "spicy"
    ],
    "lat": 54.577189,
    "lng": -5.980588
  },
  {
    "_id": "658829a0-ca06-4aea-a8eb-b2eeaced74e2",
    "name": "Urban Chippy Bar",
    "address": "240 Stranmillis Road",
    "postcode": "BT4 2BG",
    "hygiene_rating": 4,
    "cuisine": "Fish & Chips",
    "tags": [
      "fish",
      "chips"
    ],
    "lat": 54.601302,
    "lng": -5.874961
  },
  {
    "_id": "d9728e69-c074-4532-ade0-3c5cbe0ae545",
    "name": "Blue Chippy",
    "address": "81 Ravenhill Road",
    "postcode": "BT7 1AH",
    "hygiene_rating": 5,
    "cuisine": "Fish & Chips",
    "tags": [
      "fish",
      "chips"
    ],
    "lat": 54.591059,
    "lng": -5.931489
  },
  {
    "_id": "69717c70-85aa-4453-9c83-ca6d93cccd79",
    "name": "Malone Curry Spot",
    "address": "226 Holywood Road",
    "postcode": "BT8 8AD",
    "hygiene_rating": 4,
    "cuisine": "Indian",
    "tags": [
      "curry",
      "spicy"
    ],
    "lat": 54.532932,
    "lng": -5.874344
  },
  {
    "_id": "098e1491-6b13-46d6-a618-6044137e38c5",
    "name": "Mama Wing Co.",
    "address": "185 Howard Street",
    "postcode": "BT7 5AE",
    "hygiene_rating": 4,
    "cuisine": "British / Other",
    "tags": []
  },
  {
    "_id": "1d0f2f8e-751a-46fe-afc4-6b6b894c27e4",
    "name": "Harbour Diner Express",
    "address": "141 Albertbridge Road",
    "postcode": "BT11 6AJ",
    "hygiene_rating": 4,
    "cuisine": "British / Other",
    "tags": []
  },
  {
    "_id": "ea2774d2-a20f-4aac-b31b-cba8e5a0db9c",
    "name": "Mama Diner Corner",
    "address": "56 Lisburn Road",
    "postcode": "BT9 8BB",
    "hygiene_rating": 1,
    "cuisine": "British / Other",
    "tags": []
  },
  {
    "_id": "ab738bb8-fd76-44bb-9817-f9dc12db67db",
    "name": "Malone Grill",
    "address": "242 Antrim Road",
    "postcode": "BT14 1AA",
    "hygiene_rating": 4,
    "cuisine": "Kebab",
    "tags": [
      "kebab"
    ]
  },
  {
    "_id": "d63d200d-bcae-437f-9012-a3bc1e62187c",
    "name": "Blue Sushi Spot",
    "address": "36 Botanic Avenue",
    "postcode": "BT12 9BG",
    "hygiene_rating": 3,
    "cuisine": "Japanese",
    "tags": [
      "sushi"
    ]
  },
  {
    "_id": "5618c38b-8654-440d-885c-f6dd28209e72",
    "name": "Blue Sushi Eatery",
    "address": "106 Great Victoria Street",
    "postcode": "BT1 1AJ",
    "hygiene_rating": 3,
    "cuisine": "Japanese",
    "tags": [
      "sushi"
    ]
  },
  {
    "_id": "43c9833a-2f5b-4293-a509-80d461ea9b9d",
    "name": "Ormeau House Co.",
    "address": "65 Holywood Road",
    "postcode": "BT14 6AJ",
    "hygiene_rating": 4,
    "cuisine": "British / Other",
    "tags": [],
    "lat": 54.608388,
    "lng": -5.937065
  },
  {
    "_id": "22fdc3c6-c08c-4fab-8f08-3551757d0c4f",
    "name": "Cathedral Wing",
    "address": "173 Boucher Road",
    "postcode": "BT7 3AD",
    "hygiene_rating": 2,
    "cuisine": "British / Other",
    "tags": [],
    "lat": 54.581302,
    "lng": -5.923151
  },
  {
    "_id": "35d24031-aeee-40a5-a37e-ebb9a1547eca",
    "name": "Urban Kitchen Palace",
    "address": "197 Royal Avenue",
    "postcode": "BT15 1AH",
    "hygiene_rating": 4,
    "cuisine": "British / Other",
    "tags": []
  },
  {
    "_id": "f7f114b8-e88c-470e-8bb1-cdf5b807931f",
    "name": "Botanic Slice",
    "address": "207 Falls Road",
    "postcode": "BT8 1BE",
    "hygiene_rating": 4,
    "cuisine": "Italian",
    "tags": [
      "pizza"
    ]
  },
  {
    "_id": "8c51d1c2-c25b-48f9-95eb-4870865fab54",
    "name": "Belfast Garden Palace",
    "address": "145 Castlereagh Road",
    "postcode": "BT4 4AL",
    "hygiene_rating": 1,
    "cuisine": "British / Other",
    "tags": []
  },
  {
    "_id": "37014902-7b5e-4f75-8d5e-11dbf36438b1",
    "name": "Golden Noodle Eatery",
    "address": "194 Stranmillis Road",
    "postcode": "BT14 1AE",
    "hygiene_rating": 3,
    "cuisine": "Chinese",
    "tags": [
      "noodles"
    ]
  },
  {
    "_id": "d7efcb7b-8b5c-404a-a724-b49e53276858",
    "name": "Malone Tandoori Express",
    "address": "53 Newtownards Road",
    "postcode": "BT6 2BF",
    "hygiene_rating": 3,
    "cuisine": "Indian",
    "tags": [
      "curry",
      "spicy"
    ]
  },
  {
    "_id": "e20fd028-66f8-44e4-aa13-e9d9b7fb4e1b",
    "name": "Blue Grill",
    "address": "172 University Road",
    "postcode": "BT7 9BA",
    "hygiene_rating": 5,
    "cuisine": "Kebab",
    "tags": [
      "kebab"
    ]
  },
  {
    "_id": "f5c5da61-bf64-442f-91c6-3562f301ddd3",
    "name": "Papa Grill",
    "address": "202 Woodstock Road",
    "postcode": "BT8 3AL",
    "hygiene_rating": 1,
    "cuisine": "Kebab",
    "tags": [
      "kebab"
    ]
  },
  {
    "_id": "b6bd819e-08e0-40e8-b250-c1c5eb063670",
    "name": "Papa Garden Palace",
    "address": "201 University Road",
    "postcode": "BT6 2AB",
    "hygiene_rating": 4,
    "cuisine": "British / Other",
    "tags": []
  },
  {
    "_id": "4e0bc5fb-8aa8-4c86-8f41-4a909a25b76c",
    "name": "City Garden",
    "address": "14 Stranmillis Road",
    "postcode": "BT5 7AB",
    "hygiene_rating": 3,
    "cuisine": "British / Other",
    "tags": [],
    "lat": 54.593205,
    "lng": -5.853535
  },
  {
    "_id": "ed55e7c3-e08b-4bc7-87bf-b0d9dd0b308b",
    "name": "Spice Grill Palace",
    "address": "142 Woodstock Road",
    "postcode": "BT8 1AA",
    "hygiene_rating": 5,
    "cuisine": "Indian",
    "tags": [
      "curry",
      "spicy"
    ]
  },
  {
    "_id": "5edd9528-052a-48f3-b95b-9400ce4cc854",
    "name": "Urban Street Food Bar",
    "address": "176 Antrim Road",
    "postcode": "BT15 5AB",
    "hygiene_rating": 3,
    "cuisine": "British / Other",
    "tags": [],
    "lat": 54.622043,
    "lng": -5.938557
  },
  {
    "_id": "60a976dd-7599-444c-b563-6ff9b193321a",
    "name": "Harbour Wing",
    "address": "37 Howard Street",
    "postcode": "BT13 7AC",
    "hygiene_rating": 5,
    "cuisine": "British / Other",
    "tags": []
  },
  {
    "_id": "29d9aeb8-0c05-489f-b6ca-5d2cacfc83c2",
    "name": "Belfast Garden",
    "address": "205 York Street",
    "postcode": "BT4 2AC",
    "hygiene_rating": 5,
    "cuisine": "British / Other",
    "tags": []
  },
  {
    "_id": "e4479930-3986-4f89-8119-ecd8c98e2791",
    "name": "Mama Garden",
    "address": "14 Ravenhill Road",
    "postcode": "BT2 7AH",
    "hygiene_rating": 3,
    "cuisine": "British / Other",
    "tags": [],
    "lat": 54.590831,
    "lng": -5.934425
  },
  {
    "_id": "97a1f6a2-b7dd-470b-a2d5-4dfd08e93b85",
    "name": "Papa Street Food Palace",
    "address": "230 Malone Road",
    "postcode": "BT9 6BD",
    "hygiene_rating": 4,
    "cuisine": "British / Other",
    "tags": []
  },
  {
    "_id": "120751ab-e3a8-4e7b-9bcf-02fc028f447d",
    "name": "Crown Bakery Spot",
    "address": "241 Great Victoria Street",
    "postcode": "BT7 7AF",
    "hygiene_rating": 1,
    "cuisine": "Bakery",
    "tags": [
      "dessert"
    ]
  },
  {
    "_id": "4a88c86b-fd4a-4308-82e7-dd0ff9958195",
    "name": "Spice Chippy",
    "address": "245 Royal Avenue",
    "postcode": "BT10 7BA",
    "hygiene_rating": 1,
    "cuisine": "Indian",
    "tags": [
      "curry",
      "spicy"
    ]
  },
  {
    "_id": "8272311e-6714-47f4-93c6-eac4925518b9",
    "name": "Mama Noodle",
    "address": "40 University Road",
    "postcode": "BT12 7BA",
    "hygiene_rating": null,
    "cuisine": "Chinese",
    "tags": [
      "noodles"
    ],
    "lat": 54.597758,
    "lng": -5.961418
  },
  {
    "_id": "550b21d0-39c0-4880-b168-aa33c429276a",
    "name": "Dragon Garden Hub",
    "address": "93 Castlereagh Road",
    "postcode": "BT13 5AD",
    "hygiene_rating": 3,
    "cuisine": "Chinese",
    "tags": [
      "noodles"
    ]
  },
  {
    "_id": "6785e6fe-3a02-4616-a176-16e24e61d196",
    "name": "City Pizza Co.",
    "address": "222 Donegall Road",
    "postcode": "BT7 1AL",
    "hygiene_rating": 4,
    "cuisine": "Italian",
    "tags": [
      "pizza"
    ]
  },
  {
    "_id": "7d284514-ab57-4c9e-94ed-e998c8b97022",
    "name": "Spice Bistro Eatery",
    "address": "132 Great Victoria Street",
    "postcode": "BT7 2AA",
    "hygiene_rating": 2,
    "cuisine": "Indian",
    "tags": [
      "curry",
      "spicy"
    ],
    "lat": 54.595784,
    "lng": -5.923017
  },
  {
    "_id": "cde1544f-100d-4d42-a1f3-f5c9babf79f1",
    "name": "Belfast Garden",
    "address": "232 Great Victoria Street",
    "postcode": "BT4 9AF",
    "hygiene_rating": 1,
    "cuisine": "British / Other",
    "tags": []
  },
  {
    "_id": "121ba234-eda9-4823-a450-1b3867f4c9eb",
    "name": "Belfast Bistro Hub",
    "address": "127 Newtownards Road",
    "postcode": "BT3 2AF",
    "hygiene_rating": 4,
    "cuisine": "British / Other",
    "tags": []
  },
  {
    "_id": "69ebdae5-bc0d-4b69-8e1f-b82539d097d2",
    "name": "Crown Wok Place",
    "address": "65 Ravenhill Road",
    "postcode": "BT4 8AG",
    "hygiene_rating": 5,
    "cuisine": "Chinese",
    "tags": [
      "noodles"
    ]
  },
  {
    "_id": "4671f0e8-66f4-4358-9d11-8dc1c247c1f7",
    "name": "Harbour Wok",
    "address": "250 University Road",
    "postcode": "BT10 3AL",
    "hygiene_rating": null,
    "cuisine": "Chinese",
    "tags": [
      "noodles"
    ]
  },
  {
    "_id": "0b0296f7-9551-41a6-85f1-fa2995bd4f9a",
    "name": "Urban Sushi Palace",
    "address": "75 Donegall Road",
    "postcode": "BT12 8AH",
    "hygiene_rating": null,
    "cuisine": "Japanese",
    "tags": [
      "sushi"
    ]
  },
  {
    "_id": "079f51d3-bc6e-4721-94c0-511194efca29",
    "name": "Dragon House Palace",
    "address": "216 Donegall Road",
    "postcode": "BT10 7BA",
    "hygiene_rating": 5,
    "cuisine": "Chinese",
    "tags": [
      "noodles"
    ]
  },
  {
    "_id": "4f038048-8476-43d3-bb98-3600a9e1a981",
    "name": "Malone Wing",
    "address": "242 Castlereagh Road",
    "postcode": "BT12 4BF",
    "hygiene_rating": 4,
    "cuisine": "British / Other",
    "tags": []
  },
  {
    "_id": "da7f7472-75ce-4649-8fbd-c1c6073ebfb1",
    "name": "Belfast Burger",
    "address": "94 Woodstock Road",
    "postcode": "BT2 4AF",
    "hygiene_rating": 1,
    "cuisine": "Burgers",
    "tags": [
      "burger"
    ]
  },
  {
    "_id": "02c5b451-37e4-49bf-8dbf-541a801b06b4",
    "name": "Ormeau Wok",
    "address": "180 Ravenhill Road",
    "postcode": "BT15 9AC",
    "hygiene_rating": 2,
    "cuisine": "Chinese",
    "tags": [
      "noodles"
    ]
  },
  {
    "_id": "6596ac27-469f-43d6-8d37-75b9e12b2486",
    "name": "Cathedral Garden",
    "address": "173 Cavehill Road",
    "postcode": "BT8 3AL",
    "hygiene_rating": 4,
    "cuisine": "British / Other",
    "tags": []
  },
  {
    "_id": "8cc04537-ac0e-4633-86f0-4f6c709fc8ef",
    "name": "Raven Kitchen Hub",
    "address": "131 Sandy Row",
    "postcode": "BT12 9AH",
    "hygiene_rating": 5,
    "cuisine": "British / Other",
    "tags": []
  },
  {
    "_id": "5dcddd59-0400-4c59-ae51-4374c6617ede",
    "name": "Crown House",
    "address": "19 Woodstock Road",
    "postcode": "BT8 8BD",
    "hygiene_rating": 3,
    "cuisine": "British / Other",
    "tags": [],
    "lat": 54.519963,
    "lng": -5.885923
  },
  {
    "_id": "d94ad139-b72f-4f71-a833-a62124cd94d5",
    "name": "City Noodle Co.",
    "address": "129 Boucher Road",
    "postcode": "BT3 6AA",
    "hygiene_rating": 5,
    "cuisine": "Chinese",
    "tags": [
      "noodles"
    ]
  },
  {
    "_id": "839a5f6a-e7d9-404a-911a-3bdf51e91b6b",
    "name": "Botanic Curry Co.",
    "address": "145 Ormeau Road",
    "postcode": "BT11 7BA",
    "hygiene_rating": 4,
    "cuisine": "Indian",
    "tags": [
      "curry",
      "spicy"
    ]
  },
  {
    "_id": "bd7305cd-e477-4928-ba95-29f6dace750c",
    "name": "Dragon Slice Place",
    "address": "213 Shankill Road",
    "postcode": "BT12 3BB",
    "hygiene_rating": 5,
    "cuisine": "Italian",
    "tags": [
      "pizza"
    ]
  },
  {
    "_id": "2b37f35f-612f-420c-bd3b-4c107b4647d5",
    "name": "Harbour Bakery",
    "address": "124 Holywood Road",
    "postcode": "BT6 8AD",
    "hygiene_rating": 5,
    "cuisine": "Bakery",
    "tags": [
      "dessert"
    ],
    "lat": 54.592808,
    "lng": -5.905158
  },
  {
    "_id": "5f46de00-5b59-43a6-8d42-bb285c19fc3e",
    "name": "Papa Diner",
    "address": "41 Great Victoria Street",
    "postcode": "BT6 9BE",
    "hygiene_rating": 5,
    "cuisine": "British / Other",
    "tags": [],
    "lat": 54.588657,
    "lng": -5.899477
  },
  {
    "_id": "fef0352d-cb8d-4a2c-b42a-70541f8fb932",
    "name": "Spice Street Food Eatery",
    "address": "94 Botanic Avenue",
    "postcode": "BT6 4BF",
    "hygiene_rating": 2,
    "cuisine": "Indian",
    "tags": [
      "curry",
      "spicy"
    ]
  },
  {
    "_id": "15586f57-636b-4d3e-ad30-7d6e8848c718",
    "name": "Green Chippy Bar",
    "address": "30 Boucher Road",
    "postcode": "BT1 6AD",
    "hygiene_rating": 1,
    "cuisine": "Fish & Chips",
    "tags": [
      "fish",
      "chips"
    ],
    "lat": 54.598983,
    "lng": -5.934569
  },
  {
    "_id": "41c7b45b-ccc2-49b7-a307-da47607592d8",
    "name": "Dragon Curry Lounge",
    "address": "45 Royal Avenue",
    "postcode": "BT14 5AC",
    "hygiene_rating": 1,
    "cuisine": "Indian",
    "tags": [
      "curry",
      "spicy"
    ]
  },
  {
    "_id": "ec6669e8-64ce-442e-bf00-366922ec5f33",
    "name": "Botanic Noodle",
    "address": "164 Botanic Avenue",
    "postcode": "BT11 7BD",
    "hygiene_rating": 1,
    "cuisine": "Chinese",
    "tags": [
      "noodles"
    ]
  },
  {
    "_id": "14d3407c-7d62-43fe-b58f-bcad877d62b2",
    "name": "Mama Chippy Hub",
    "address": "47 Shankill Road",
    "postcode": "BT6 3BD",
    "hygiene_rating": 4,
    "cuisine": "Fish & Chips",
    "tags": [
      "fish",
      "chips"
    ]
  },
  {
    "_id": "ef2900a3-207f-4474-8079-4d689bddf679",
    "name": "Cathedral House Lounge",
    "address": "14 Royal Avenue",
    "postcode": "BT14 6AA",
    "hygiene_rating": 5,
    "cuisine": "British / Other",
    "tags": [],
    "lat": 54.607763,
    "lng": -5.937328
  },
  {
    "_id": "2632f06b-10a0-417a-b410-f4471f93886b",
    "name": "Ormeau Kitchen",
    "address": "199 Newtownards Road",
    "postcode": "BT9 6AB",
    "hygiene_rating": 4,
    "cuisine": "British / Other",
    "tags": []
  },
  {
    "_id": "120bf3b7-ccee-4915-9eca-e3487e359fda",
    "name": "Golden Bakery Place",
    "address": "222 Castlereagh Road",
    "postcode": "BT2 4AG",
    "hygiene_rating": 4,
    "cuisine": "Bakery",
    "tags": [
      "dessert"
    ]
  },
  {
    "_id": "144470e0-95d7-4b93-a24c-2765d7588bb2",
    "name": "City Wok Corner",
    "address": "209 Stranmillis Road",
    "postcode": "BT4 1BB",
    "hygiene_rating": 3,
    "cuisine": "Chinese",
    "tags": [
      "noodles"
    ],
    "lat": 54.601036,
    "lng": -5.906593
  },
  {
    "_id": "75bf3e50-8eee-460e-9617-9706c2842416",
    "name": "Harbour Diner",
    "address": "101 Malone Road",
    "postcode": "BT8 3AJ",
    "hygiene_rating": 1,
    "cuisine": "British / Other",
    "tags": []
  },
  {
    "_id": "c3ca09d4-a957-4560-b4cf-cebaf2d054a2",
    "name": "Raven Grill",
    "address": "33 University Road",
    "postcode": "BT12 3AH",
    "hygiene_rating": 3,
    "cuisine": "Kebab",
    "tags": [
      "kebab"
    ]
  },
  {
    "_id": "466f0027-99bc-4910-ab3c-45bd628f376a",
    "name": "Crown Pizza Hub",
    "address": "147 York Street",
    "postcode": "BT5 9AD",
    "hygiene_rating": 3,
    "cuisine": "Italian",
    "tags": [
      "pizza"
    ]
  },
  {
    "_id": "34eb5ada-0e66-472e-bf85-44591da8ae98",
    "name": "Raven Noodle Place",
    "address": "132 Woodstock Road",
    "postcode": "BT12 5BB",
    "hygiene_rating": 5,
    "cuisine": "Chinese",
    "tags": [
      "noodles"
    ]
  },
  {
    "_id": "cc3588b4-d418-49c5-ab0f-7f2562fceee5",
    "name": "City Garden",
    "address": "56 Woodstock Road",
    "postcode": "BT7 4BG",
    "hygiene_rating": 5,
    "cuisine": "British / Other",
    "tags": []
  },
  {
    "_id": "f1919494-e864-417c-bf1c-8460fa6b68d6",
    "name": "Harbour Slice Co.",
    "address": "145 Falls Road",
    "postcode": "BT14 8BA",
    "hygiene_rating": 1,
    "cuisine": "Italian",
    "tags": [
      "pizza"
    ]
  },
  {
    "_id": "f8f9898a-6e5a-49ac-86b4-3ecf810e777d",
    "name": "Golden Grill Lounge",
    "address": "32 Lisburn Road",
    "postcode": "BT15 3BF",
    "hygiene_rating": 5,
    "cuisine": "Kebab",
    "tags": [
      "kebab"
    ]
  },
  {
    "_id": "6862a6e8-3196-40ee-9a18-840d9aae2321",
    "name": "Blue Chippy",
    "address": "217 Ballygomartin Road",
    "postcode": "BT12 2BF",
    "hygiene_rating": 1,
    "cuisine": "Fish & Chips",
    "tags": [
      "fish",
      "chips"
    ]
  },
  {
    "_id": "2dbd86ee-df16-4dfa-8bd0-0e1c5e13d5ff",
    "name": "Little Wok Corner",
    "address": "78 University Road",
    "postcode": "BT3 5AC",
    "hygiene_rating": 1,
    "cuisine": "Chinese",
    "tags": [
      "noodles"
    ]
  },
  {
    "_id": "48ac64c9-81e8-4339-b9fd-213f8f119761",
    "name": "City Burger Corner",
    "address": "102 Ormeau Road",
    "postcode": "BT11 5AH",
    "hygiene_rating": 4,
    "cuisine": "Burgers",
    "tags": [
      "burger"
    ]
  },
  {
    "_id": "3ea10813-3632-46e9-ad65-7c4a1333d826",
    "name": "Blue Wok",
    "address": "126 Castlereagh Road",
    "postcode": "BT3 2AA",
    "hygiene_rating": 4,
    "cuisine": "Chinese",
    "tags": [
      "noodles"
    ]
  },
  {
    "_id": "3e09ea0d-14d2-4808-8639-29fe579338ad",
    "name": "Spice Kitchen Lounge",
    "address": "34 Antrim Road",
    "postcode": "BT10 4BF",
    "hygiene_rating": 1,
    "cuisine": "Indian",
    "tags": [
      "curry",
      "spicy"
    ]
  },
  {
    "_id": "cf091f67-11c5-4403-b712-db8ac7f58540",
    "name": "Little Chippy",
    "address": "178 Cavehill Road",
    "postcode": "BT3 8AC",
    "hygiene_rating": 4,
    "cuisine": "Fish & Chips",
    "tags": [
      "fish",
      "chips"
    ]
  },
  {
    "_id": "2277a9f7-9e5a-4c2a-b808-ca09d177551e",
    "name": "Belfast Garden",
    "address": "27 Shankill Road",
    "postcode": "BT6 6AL",
    "hygiene_rating": 3,
    "cuisine": "British / Other",
    "tags": []
  },
  {
    "_id": "7913821d-d087-4bc5-8096-f5d6a51b73b7",
    "name": "Belfast House",
    "address": "37 Malone Road",
    "postcode": "BT2 9AA",
    "hygiene_rating": 2,
    "cuisine": "British / Other",
    "tags": []
  },
  {
    "_id": "055e3f5c-2af7-433d-ba5e-d8c83dffbee6",
    "name": "Mama Street Food Corner",
    "address": "163 Albertbridge Road",
    "postcode": "BT9 3AF",
    "hygiene_rating": 5,
    "cuisine": "British / Other",
    "tags": []
  },
  {
    "_id": "ef7730b0-0efc-40f7-9903-3bc51c8d069a",
    "name": "Papa Bakery Express",
    "address": "192 University Road",
    "postcode": "BT3 7BF",
    "hygiene_rating": 3,
    "cuisine": "Bakery",
    "tags": [
      "dessert"
    ]
  },
  {
    "_id": "314c2ec3-a8c4-44b5-86a0-6e9fedf5d769",
    "name": "Harbour House Place",
    "address": "142 Sandy Row",
    "postcode": "BT10 5AA",
    "hygiene_rating": 3,
    "cuisine": "British / Other",
    "tags": []
  },
  {
    "_id": "081d28ea-414c-4ab8-a63d-c6998347705a",
    "name": "Urban Garden",
    "address": "193 Falls Road",
    "postcode": "BT2 7BB",
    "hygiene_rating": 4,
    "cuisine": "British / Other",
    "tags": [],
    "lat": 54.5941,
    "lng": -5.933826
  },
  {
    "_id": "99e01b1d-76ae-4d6e-8f3b-3bf040783256",
    "name": "Golden Diner Place",
    "address": "128 Sandy Row",
    "postcode": "BT11 2AA",
    "hygiene_rating": null,
    "cuisine": "British / Other",
    "tags": []
  },
  {
    "_id": "601f2d0b-918d-494a-85e6-3487fe521f83",
    "name": "Cathedral Café",
    "address": "49 Holywood Road",
    "postcode": "BT12 7AL",
    "hygiene_rating": 1,
    "cuisine": "Cafe",
    "tags": [
      "coffee",
      "breakfast"
    ],
    "lat": 54.597851,
    "lng": -5.972323
  },
  {
    "_id": "d4e3df42-9efa-4984-803b-d4c3da48cafd",
    "name": "Harbour House Co.",
    "address": "94 Cavehill Road",
    "postcode": "BT9 3BG",
    "hygiene_rating": 4,
    "cuisine": "British / Other",
    "tags": []
  },
  {
    "_id": "b8e66af8-b6d3-4f02-998e-2dcb2ceda7f1",
    "name": "Belfast Tandoori Eatery",
    "address": "107 Ballygomartin Road",
    "postcode": "BT7 7AC",
    "hygiene_rating": 1,
    "cuisine": "Indian",
    "tags": [
      "curry",
      "spicy"
    ]
  },
  {
    "_id": "acee0b13-db9b-4087-9f82-aa9d776efead",
    "name": "Spice Wing",
    "address": "68 Lisburn Road",
    "postcode": "BT4 1AB",
    "hygiene_rating": 4,
    "cuisine": "Indian",
    "tags": [
      "curry",
      "spicy"
    ],
    "lat": 54.599526,
    "lng": -5.904519
  },
  {
    "_id": "194d82a4-61d5-4a27-98a5-c5d6a9927b8c",
    "name": "Malone Pizza",
    "address": "22 Newtownards Road",
    "postcode": "BT5 2AG",
    "hygiene_rating": 4,
    "cuisine": "Italian",
    "tags": [
      "pizza"
    ]
  },
  {
    "_id": "16fbdb09-6ebf-4f8c-94eb-c64a9f04a873",
    "name": "Mama Pizza Co.",
    "address": "196 University Road",
    "postcode": "BT14 2AL",
    "hygiene_rating": 5,
    "cuisine": "Italian",
    "tags": [
      "pizza"
    ]
  },
  {
    "_id": "0d7cf2a1-a09b-4b0f-a405-d57328fa5881",
    "name": "Raven Diner Place",
    "address": "30 Cavehill Road",
    "postcode": "BT8 1AL",
    "hygiene_rating": 1,
    "cuisine": "British / Other",
    "tags": []
  },
  {
    "_id": "7ae16fa7-aee0-42df-a5a6-637b3b88a533",
    "name": "Papa Kitchen Corner",
    "address": "3 Boucher Road",
    "postcode": "BT3 8BB",
    "hygiene_rating": 3,
    "cuisine": "British / Other",
    "tags": []
  },
  {
    "_id": "94c4c947-bf4e-4b9a-9f8b-ce401e8e40b6",
    "name": "Little Chippy",
    "address": "135 Newtownards Road",
    "postcode": "BT2 5AC",
    "hygiene_rating": 5,
    "cuisine": "Fish & Chips",
    "tags": [
      "fish",
      "chips"
    ]
  },
  {
    "_id": "ccc0f00f-f9dd-4ab6-a290-883a7dec3851",
    "name": "Dragon Street Food",
    "address": "59 Shankill Road",
    "postcode": "BT12 9AA",
    "hygiene_rating": 1,
    "cuisine": "Chinese",
    "tags": [
      "noodles"
    ]
  },
  {
    "_id": "8cbc8a13-925a-4d07-b0be-735830970f2f",
    "name": "Green Tandoori Lounge",
    "address": "43 Howard Street",
    "postcode": "BT6 3AJ",
    "hygiene_rating": 4,
    "cuisine": "Indian",
    "tags": [
      "curry",
      "spicy"
    ]
  },
  {
    "_id": "8d4d4e1f-4f99-4357-bcf0-03809c691538",
    "name": "Ormeau Burger Corner",
    "address": "200 Shore Road",
    "postcode": "BT14 5AD",
    "hygiene_rating": 4,
    "cuisine": "Burgers",
    "tags": [
      "burger"
    ]
  },
  {
    "_id": "cf5e456a-c699-43df-9c56-5d2382f40e2d",
    "name": "Mama Café",
    "address": "130 Great Victoria Street",
    "postcode": "BT11 8BE",
    "hygiene_rating": 1,
    "cuisine": "Cafe",
    "tags": [
      "coffee",
      "breakfast"
    ],
    "lat": 54.583665,
    "lng": -5.980407
  },
  {
    "_id": "5e8be7b0-0f1f-4f03-8091-5baa69bf7d28",
    "name": "Urban Bakery",
    "address": "2 Woodstock Road",
    "postcode": "BT12 4AG",
    "hygiene_rating": 5,
    "cuisine": "Bakery",
    "tags": [
      "dessert"
    ],
    "lat": 54.598843,
    "lng": -5.937439
  },
  {
    "_id": "6d96226b-1937-42b8-b916-d68c58628bf9",
    "name": "Botanic Slice Express",
    "address": "74 Great Victoria Street",
    "postcode": "BT3 8BG",
    "hygiene_rating": 3,
    "cuisine": "Italian",
    "tags": [
      "pizza"
    ]
  },
  {
    "_id": "c52a7163-4f7a-42fe-97c5-a4cb73add9a0",
    "name": "Crown Sushi",
    "address": "81 University Road",
    "postcode": "BT10 7BD",
    "hygiene_rating": 2,
    "cuisine": "Japanese",
    "tags": [
      "sushi"
    ]
  },
  {
    "_id": "9511b079-d2d3-4683-bdd0-bd690fc5aa96",
    "name": "Green Pizza Palace",
    "address": "189 Shankill Road",
    "postcode": "BT14 4AL",
    "hygiene_rating": 3,
    "cuisine": "Italian",
    "tags": [
      "pizza"
    ]
  },
  {
    "_id": "5aa1bd1c-c43a-4852-bd30-fe12ce62d640",
    "name": "Little Diner Spot",
    "address": "236 Woodstock Road",
    "postcode": "BT3 3AB",
    "hygiene_rating": 3,
    "cuisine": "British / Other",
    "tags": []
  },
  {
    "_id": "f39c7d00-b0b7-4ff3-8395-7ded10e76757",
    "name": "Raven Diner Palace",
    "address": "82 Shore Road",
    "postcode": "BT5 2BB",
    "hygiene_rating": 2,
    "cuisine": "British / Other",
    "tags": []
  },
  {
    "_id": "62e01d3b-9442-4858-aeba-3ff18a375dc6",
    "name": "Cathedral Diner Co.",
    "address": "198 Albertbridge Road",
    "postcode": "BT13 4AH",
    "hygiene_rating": 3,
    "cuisine": "British / Other",
    "tags": []
  },
  {
    "_id": "f203de2f-10cd-4f6d-9f7b-930be6127917",
    "name": "Little Wok Eatery",
    "address": "163 Ravenhill Road",
    "postcode": "BT14 1BA",
    "hygiene_rating": 1,
    "cuisine": "Chinese",
    "tags": [
      "noodles"
    ]
  },
  {
    "_id": "1ce0b8d6-c5f7-45be-9805-47f33d7e4405",
    "name": "Belfast Slice Eatery",
    "address": "108 Sandy Row",
    "postcode": "BT8 1AE",
    "hygiene_rating": 5,
    "cuisine": "Italian",
    "tags": [
      "pizza"
    ]
  },
  {
    "_id": "88f47a97-43cf-432d-8eb4-64ddca9ddc58",
    "name": "Ormeau Grill Eatery",
    "address": "245 Ormeau Road",
    "postcode": "BT7 2BF",
    "hygiene_rating": 3,
    "cuisine": "Kebab",
    "tags": [
      "kebab"
    ]
  },
  {
    "_id": "21e6c90a-2374-4126-b294-c83d040b95dc",
    "name": "Crown Garden Express",
    "address": "106 Holywood Road",
    "postcode": "BT12 6BF",
    "hygiene_rating": 5,
    "cuisine": "British / Other",
    "tags": [],
    "lat": 54.581907,
    "lng": -5.957059
  },
  {
    "_id": "b119f045-2f87-4d7b-be15-2638c55bd84f",
    "name": "Cathedral Slice Eatery",
    "address": "3 Castlereagh Road",
    "postcode": "BT6 4AL",
    "hygiene_rating": 2,
    "cuisine": "Italian",
    "tags": [
      "pizza"
    ]
  },
  {
    "_id": "fc0e580a-dce4-4741-90ab-e32bbce33c24",
    "name": "Spice Street Food Corner",
    "address": "210 University Road",
    "postcode": "BT7 2AB",
    "hygiene_rating": 4,
    "cuisine": "Indian",
    "tags": [
      "curry",
      "spicy"
    ]
  },
  {
    "_id": "1a40a21a-06c0-479b-87a4-faea9075165f",
    "name": "Mama Diner Spot",
    "address": "180 Woodstock Road",
    "postcode": "BT14 6BA",
    "hygiene_rating": 5,
    "cuisine": "British / Other",
    "tags": [],
    "lat": 54.609839,
    "lng": -5.938369
  },
  {
    "_id": "605a082d-c523-4d9b-8f7d-88515503209a",
    "name": "Crown Diner Express",
    "address": "200 Falls Road",
    "postcode": "BT13 2AE",
    "hygiene_rating": 2,
    "cuisine": "British / Other",
    "tags": []
  },
  {
    "_id": "fae0096e-6020-429a-b410-3987ee19cd7a",
    "name": "Harbour House Express",
    "address": "102 Ravenhill Road",
    "postcode": "BT9 1AL",
    "hygiene_rating": 5,
    "cuisine": "British / Other",
    "tags": []
  },
  {
    "_id": "95303d20-5ff1-4766-9b7b-51ee4ae61602",
    "name": "Papa Bakery Palace",
    "address": "138 Shankill Road",
    "postcode": "BT6 4BF",
    "hygiene_rating": 5,
    "cuisine": "Bakery",
    "tags": [
      "dessert"
    ]
  },
  {
    "_id": "2585a4fd-f339-47a2-b649-590f61942d4d",
    "name": "Green Burger",
    "address": "41 Antrim Road",
    "postcode": "BT13 5AB",
    "hygiene_rating": 4,
    "cuisine": "Burgers",
    "tags": [
      "burger"
    ]
  },
  {
    "_id": "402c4147-1e72-4e56-9679-1d206144e593",
    "name": "Papa Wing",
    "address": "143 Castlereagh Road",
    "postcode": "BT12 9AH",
    "hygiene_rating": 2,
    "cuisine": "British / Other",
    "tags": []
  },
  {
    "_id": "035641fa-a127-4adc-baf6-d2e819c187b7",
    "name": "Green Kitchen",
    "address": "32 Falls Road",
    "postcode": "BT1 1AH",
    "hygiene_rating": 3,
    "cuisine": "British / Other",
    "tags": []
  },
  {
    "_id": "d99bfee6-d4e3-43e0-b47a-97eeda36bacb",
    "name": "Urban Bakery",
    "address": "232 Antrim Road",
    "postcode": "BT14 6AD",
    "hygiene_rating": 1,
    "cuisine": "Bakery",
    "tags": [
      "dessert"
    ],
    "lat": 54.60964,
    "lng": -5.945159
  },
  {
    "_id": "50039fb3-24fa-43a9-a684-b3849e4246e2",
    "name": "Urban Noodle Place",
    "address": "151 Howard Street",
    "postcode": "BT5 2AA",
    "hygiene_rating": 2,
    "cuisine": "Chinese",
    "tags": [
      "noodles"
    ]
  },
  {
    "_id": "6ad5403b-6c35-4a13-bc02-a1be94a230c4",
    "name": "City Sushi",
    "address": "89 Albertbridge Road",
    "postcode": "BT15 9BA",
    "hygiene_rating": 4,
    "cuisine": "Japanese",
    "tags": [
      "sushi"
    ]
  },
  {
    "_id": "2cacc79d-1092-4005-b726-2bb6ddce8932",
    "name": "Botanic Slice Eatery",
    "address": "16 Albertbridge Road",
    "postcode": "BT2 5BD",
    "hygiene_rating": 3,
    "cuisine": "Italian",
    "tags": [
      "pizza"
    ]
  },
  {
    "_id": "50127657-8dcd-4cb8-9d2d-fecef43cdb20",
    "name": "Raven Café",
    "address": "64 Holywood Road",
    "postcode": "BT11 9AA",
    "hygiene_rating": 4,
    "cuisine": "Cafe",
    "tags": [
      "coffee",
      "breakfast"
    ],
    "lat": 54.582769,
    "lng": -5.979523
  },
  {
    "_id": "a47a8435-be9c-4fee-8fa2-586f6ffdf200",
    "name": "Blue Tandoori Co.",
    "address": "250 Sandy Row",
    "postcode": "BT3 2AH",
    "hygiene_rating": 1,
    "cuisine": "Indian",
    "tags": [
      "curry",
      "spicy"
    ]
  },
  {
    "_id": "c7001a17-929c-46f9-a81c-376e7ec68032",
    "name": "Green Grill Co.",
    "address": "211 Cavehill Road",
    "postcode": "BT12 7BG",
    "hygiene_rating": 1,
    "cuisine": "Kebab",
    "tags": [
      "kebab"
    ],
    "lat": 54.598097,
    "lng": -5.96236
  },
  {
    "_id": "0a0d5ccb-b1e4-4ef6-a6fd-efe96504d666",
    "name": "Crown Bistro Co.",
    "address": "8 Sandy Row",
    "postcode": "BT15 5AB",
    "hygiene_rating": 4,
    "cuisine": "British / Other",
    "tags": [],
    "lat": 54.622043,
    "lng": -5.938557
  },
  {
    "_id": "75bd0103-6dee-4867-984e-a661155a7538",
    "name": "Belfast Wok Express",
    "address": "71 Botanic Avenue",
    "postcode": "BT5 8AE",
    "hygiene_rating": 1,
    "cuisine": "Chinese",
    "tags": [
      "noodles"
    ]
  },
  {
    "_id": "10f712ba-62f7-4c84-a1fc-d89dbdd91fa0",
    "name": "Mama Street Food",
    "address": "139 Albertbridge Road",
    "postcode": "BT5 3BG",
    "hygiene_rating": 1,
    "cuisine": "British / Other",
    "tags": []
  },
  {
    "_id": "f8fa4201-c71c-415c-a37a-f84cb43f3b14",
    "name": "Malone Curry Co.",
    "address": "97 Botanic Avenue",
    "postcode": "BT5 5AE",
    "hygiene_rating": 3,
    "cuisine": "Indian",
    "tags": [
      "curry",
      "spicy"
    ],
    "lat": 54.594737,
    "lng": -5.887435
  },
  {
    "_id": "12da5442-3273-42a3-9106-e7f6497e00b8",
    "name": "Dragon Sushi Place",
    "address": "89 Sandy Row",
    "postcode": "BT6 3AC",
    "hygiene_rating": 3,
    "cuisine": "Chinese",
    "tags": [
      "noodles"
    ]
  },
  {
    "_id": "f19f2491-402d-44a7-bdfd-49ba9429787b",
    "name": "Little Street Food Co.",
    "address": "47 Ormeau Road",
    "postcode": "BT10 6AH",
    "hygiene_rating": 1,
    "cuisine": "British / Other",
    "tags": []
  },
  {
    "_id": "b9dda721-c121-47f5-ab12-4e3e5bb1b44a",
    "name": "Harbour Bakery Express",
    "address": "178 Sandy Row",
    "postcode": "BT2 6AJ",
    "hygiene_rating": 4,
    "cuisine": "Bakery",
    "tags": [
      "dessert"
    ]
  },
  {
    "_id": "c7d36e74-c1d7-44e0-a28f-7d42f41156bd",
    "name": "Dragon Wing Lounge",
    "address": "108 Shore Road",
    "postcode": "BT3 7BG",
    "hygiene_rating": 4,
    "cuisine": "Chinese",
    "tags": [
      "noodles"
    ]
  },
  {
    "_id": "8fa5152e-b9f4-4e56-8cf6-3e79dce4535a",
    "name": "City Pizza Lounge",
    "address": "167 Howard Street",
    "postcode": "BT13 4AF",
    "hygiene_rating": 5,
    "cuisine": "Italian",
    "tags": [
      "pizza"
    ]
  },
  {
    "_id": "5e7bf536-4307-46cf-ba2b-2d2a44b5f914",
    "name": "Belfast Bistro",
    "address": "242 Great Victoria Street",
    "postcode": "BT15 2BA",
    "hygiene_rating": 2,
    "cuisine": "British / Other",
    "tags": []
  },
  {
    "_id": "985cdaac-ba8f-4de5-a2b7-60adc1855681",
    "name": "Spice Grill Spot",
    "address": "244 Newtownards Road",
    "postcode": "BT2 2BA",
    "hygiene_rating": 3,
    "cuisine": "Indian",
    "tags": [
      "curry",
      "spicy"
    ]
  },
  {
    "_id": "c1ff8011-785c-4892-aa24-10744e735ce5",
    "name": "Blue Wing Corner",
    "address": "228 Royal Avenue",
    "postcode": "BT7 3AB",
    "hygiene_rating": 2,
    "cuisine": "British / Other",
    "tags": [],
    "lat": 54.581454,
    "lng": -5.922586
  },
  {
    "_id": "3b1650aa-6417-495c-96a6-2c942d29d331",
    "name": "Harbour Café",
    "address": "179 Cavehill Road",
    "postcode": "BT9 9AJ",
    "hygiene_rating": 1,
    "cuisine": "Cafe",
    "tags": [
      "coffee",
      "breakfast"
    ]
  },
  {
    "_id": "42c6f755-a598-4bbc-b779-e4cd2227a102",
    "name": "City Wing Hub",
    "address": "161 Malone Road",
    "postcode": "BT10 8AG",
    "hygiene_rating": 2,
    "cuisine": "British / Other",
    "tags": []
  },
  {
    "_id": "b48c0da5-9c7e-4c5b-abee-8869d07420e1",
    "name": "Cathedral Slice Bar",
    "address": "147 Woodstock Road",
    "postcode": "BT9 8AE",
    "hygiene_rating": 1,
    "cuisine": "Italian",
    "tags": [
      "pizza"
    ]
  },
  {
    "_id": "ec009575-d50b-479e-9ab0-6860d8525520",
    "name": "Urban House Corner",
    "address": "16 Donegall Road",
    "postcode": "BT1 3AE",
    "hygiene_rating": 4,
    "cuisine": "British / Other",
    "tags": []
  },
  {
    "_id": "034a4b40-de08-4a2c-a87b-5a26b7038c37",
    "name": "Crown Street Food Place",
    "address": "172 Antrim Road",
    "postcode": "BT6 9BE",
    "hygiene_rating": 4,
    "cuisine": "British / Other",
    "tags": [],
    "lat": 54.588657,
    "lng": -5.899477
  },
  {
    "_id": "8207cd5d-0b9f-448e-aa1c-bbf90e81859a",
    "name": "Belfast Curry Bar",
    "address": "113 Newtownards Road",
    "postcode": "BT8 5AH",
    "hygiene_rating": 3,
    "cuisine": "Indian",
    "tags": [
      "curry",
      "spicy"
    ]
  },
  {
    "_id": "a4c373c0-ce93-4ee9-86be-ede8ebba85b2",
    "name": "Botanic Pizza Palace",
    "address": "108 Holywood Road",
    "postcode": "BT9 8AH",
    "hygiene_rating": 5,
    "cuisine": "Italian",
    "tags": [
      "pizza"
    ]
  },
  {
    "_id": "42f353c3-90d5-49da-b666-ba48c23b3073",
    "name": "Green Bistro",
    "address": "249 Botanic Avenue",
    "postcode": "BT4 4AE",
    "hygiene_rating": 1,
    "cuisine": "British / Other",
    "tags": []
  },
  {
    "_id": "02d1bc5f-76de-47bb-83e3-f6b98ed46c37",
    "name": "Cathedral Garden Bar",
    "address": "147 Holywood Road",
    "postcode": "BT15 9AE",
    "hygiene_rating": 2,
    "cuisine": "British / Other",
    "tags": []
  },
  {
    "_id": "0fd1a9c1-06ae-450a-80f7-2d3839c8310c",
    "name": "Raven Garden",
    "address": "52 Cavehill Road",
    "postcode": "BT14 3AJ",
    "hygiene_rating": null,
    "cuisine": "British / Other",
    "tags": []
  },
  {
    "_id": "21b376a7-cf1d-4393-90f3-0854ad2ce825",
    "name": "Spice Garden Palace",
    "address": "84 Great Victoria Street",
    "postcode": "BT14 5BF",
    "hygiene_rating": 3,
    "cuisine": "Indian",
    "tags": [
      "curry",
      "spicy"
    ]
  },
  {
    "_id": "59077e7f-598d-4cdb-8129-eaeda5be8f49",
    "name": "Little Street Food",
    "address": "29 Cavehill Road",
    "postcode": "BT7 3AE",
    "hygiene_rating": 2,
    "cuisine": "British / Other",
    "tags": [],
    "lat": 54.581801,
    "lng": -5.92342
  },
  {
    "_id": "f16443f1-29e9-4102-a386-bd9bf1746fff",
    "name": "Belfast House",
    "address": "178 Malone Road",
    "postcode": "BT7 1BD",
    "hygiene_rating": null,
    "cuisine": "British / Other",
    "tags": []
  },
  {
    "_id": "fe6e1b4b-b194-411a-85b3-6605da84b41e",
    "name": "Dragon Kitchen",
    "address": "202 Shankill Road",
    "postcode": "BT5 9BB",
    "hygiene_rating": 4,
    "cuisine": "Chinese",
    "tags": [
      "noodles"
    ]
  },
  {
    "_id": "423072ba-bdd7-4819-aad8-fb03b51fc205",
    "name": "Crown Noodle",
    "address": "156 Howard Street",
    "postcode": "BT8 1AF",
    "hygiene_rating": 5,
    "cuisine": "Chinese",
    "tags": [
      "noodles"
    ]
  },
  {
    "_id": "842af534-bb29-4429-b5db-f42ed3f90dfb",
    "name": "Botanic Grill",
    "address": "230 Newtownards Road",
    "postcode": "BT6 1BA",
    "hygiene_rating": 3,
    "cuisine": "Kebab",
    "tags": [
      "kebab"
    ]
  },
  {
    "_id": "3227ee78-ca72-4aa0-8e5e-a17c4f3a5b48",
    "name": "Green Chippy Palace",
    "address": "166 Royal Avenue",
    "postcode": "BT2 4BF",
    "hygiene_rating": 4,
    "cuisine": "Fish & Chips",
    "tags": [
      "fish",
      "chips"
    ]
  },
  {
    "_id": "f98c04ad-c986-45ed-82ee-22734b234e7a",
    "name": "Cathedral Slice Lounge",
    "address": "176 Boucher Road",
    "postcode": "BT2 4AE",
    "hygiene_rating": 5,
    "cuisine": "Italian",
    "tags": [
      "pizza"
    ]
  },
  {
    "_id": "773bf77c-f25a-4034-887a-c7c68166af9e",
    "name": "Raven Sushi",
    "address": "211 Ravenhill Road",
    "postcode": "BT1 9AF",
    "hygiene_rating": 2,
    "cuisine": "Japanese",
    "tags": [
      "sushi"
    ]
  },
  {
    "_id": "df514dac-66b0-44f3-892b-419d16f647c6",
    "name": "Golden Diner Bar",
    "address": "181 Ravenhill Road",
    "postcode": "BT4 5BB",
    "hygiene_rating": 3,
    "cuisine": "British / Other",
    "tags": []
  },
  {
    "_id": "a388f95e-db00-4183-9f30-63cfa15c738c",
    "name": "Cathedral Tandoori Eatery",
    "address": "8 Howard Street",
    "postcode": "BT3 4AG",
    "hygiene_rating": 3,
    "cuisine": "Indian",
    "tags": [
      "curry",
      "spicy"
    ]
  },
  {
    "_id": "a702ec9f-ea69-44b7-a36c-bb06ef01200e",
    "name": "Green Bistro",
    "address": "151 Albertbridge Road",
    "postcode": "BT9 6BB",
    "hygiene_rating": 3,
    "cuisine": "British / Other",
    "tags": []
  },
  {
    "_id": "5c31c634-9dd9-4d62-b8b0-8baad746501a",
    "name": "Crown Garden Palace",
    "address": "42 Ormeau Road",
    "postcode": "BT14 4AH",
    "hygiene_rating": 1,
    "cuisine": "British / Other",
    "tags": []
  },
  {
    "_id": "02206281-8870-4dd6-9e58-8c1360be238a",
    "name": "Green Tandoori Place",
    "address": "8 Malone Road",
    "postcode": "BT4 6BG",
    "hygiene_rating": 2,
    "cuisine": "Indian",
    "tags": [
      "curry",
      "spicy"
    ]
  },
  {
    "_id": "d101c03d-b4d8-4ea7-92d1-3cfb8a544158",
    "name": "Botanic Café Palace",
    "address": "6 Holywood Road",
    "postcode": "BT14 1BG",
    "hygiene_rating": 3,
    "cuisine": "Cafe",
    "tags": [
      "coffee",
      "breakfast"
    ]
  },
  {
    "_id": "18af9ff7-4414-424a-b545-42d677645437",
    "name": "Papa Wing Co.",
    "address": "183 York Street",
    "postcode": "BT12 5BE",
    "hygiene_rating": 4,
    "cuisine": "British / Other",
    "tags": []
  },
  {
    "_id": "0b0e7939-f981-4d90-bbe4-82697b3966fa",
    "name": "City Bakery Lounge",
    "address": "174 York Street",
    "postcode": "BT9 7AD",
    "hygiene_rating": 1,
    "cuisine": "Bakery",
    "tags": [
      "dessert"
    ],
    "lat": 54.586365,
    "lng": -5.94234
  },
  {
    "_id": "deab3b03-1060-4b22-abc2-e3832c762dd7",
    "name": "Golden Street Food",
    "address": "209 Howard Street",
    "postcode": "BT4 6AH",
    "hygiene_rating": 1,
    "cuisine": "British / Other",
    "tags": []
  },
  {
    "_id": "b9767e1c-46bc-47fd-b1f1-f7da40beae74",
    "name": "Malone Sushi",
    "address": "92 Malone Road",
    "postcode": "BT9 5AF",
    "hygiene_rating": 3,
    "cuisine": "Japanese",
    "tags": [
      "sushi"
    ],
    "lat": 54.582204,
    "lng": -5.936439
  },
  {
    "_id": "485ab23f-10f0-4e54-bde9-dd82a489b256",
    "name": "Ormeau Curry",
    "address": "156 Royal Avenue",
    "postcode": "BT5 5AD",
    "hygiene_rating": 5,
    "cuisine": "Indian",
    "tags": [
      "curry",
      "spicy"
    ],
    "lat": 54.596422,
    "lng": -5.888771
  },
  {
    "_id": "ef0d6a17-f782-4c85-9b3c-8526a3929102",
    "name": "Spice Chippy",
    "address": "84 University Road",
    "postcode": "BT14 5AJ",
    "hygiene_rating": 1,
    "cuisine": "Indian",
    "tags": [
      "curry",
      "spicy"
    ]
  },
  {
    "_id": "7a952c0f-5c15-49c4-b367-79e02ae5613a",
    "name": "Cathedral Chippy Corner",
    "address": "243 Shore Road",
    "postcode": "BT7 8BA",
    "hygiene_rating": 3,
    "cuisine": "Fish & Chips",
    "tags": [
      "fish",
      "chips"
    ]
  },
  {
    "_id": "3b604a0c-4148-44e8-8292-3d409e00ff83",
    "name": "Dragon Tandoori",
    "address": "96 Antrim Road",
    "postcode": "BT12 7AD",
    "hygiene_rating": null,
    "cuisine": "Indian",
    "tags": [
      "curry",
      "spicy"
    ],
    "lat": 54.596835,
    "lng": -5.957317
  },
  {
    "_id": "95a031e4-cb6a-49bb-97f6-e9b25b358c9b",
    "name": "Papa Bistro Spot",
    "address": "179 Shore Road",
    "postcode": "BT6 1BB",
    "hygiene_rating": 2,
    "cuisine": "British / Other",
    "tags": []
  },
  {
    "_id": "21be625e-47dc-4812-9a40-13439bfbcad2",
    "name": "Belfast Sushi Hub",
    "address": "165 Antrim Road",
    "postcode": "BT9 7AF",
    "hygiene_rating": null,
    "cuisine": "Japanese",
    "tags": [
      "sushi"
    ],
    "lat": 54.58475,
    "lng": -5.942452
  },
  {
    "_id": "a581f48d-f214-43b9-96f2-6059f43b853f",
    "name": "Little Café Hub",
    "address": "122 Antrim Road",
    "postcode": "BT14 2AL",
    "hygiene_rating": 4,
    "cuisine": "Cafe",
    "tags": [
      "coffee",
      "breakfast"
    ]
  },
  {
    "_id": "bea2b4cf-396c-4aa2-9f5c-8f8a4c763001",
    "name": "Botanic Burger",
    "address": "15 Shore Road",
    "postcode": "BT13 4BD",
    "hygiene_rating": null,
    "cuisine": "Burgers",
    "tags": [
      "burger"
    ]
  },
  {
    "_id": "8e31f58d-47b8-4f1f-bfb2-b0f67a6e89d8",
    "name": "Cathedral Café Express",
    "address": "207 Ormeau Road",
    "postcode": "BT14 7BA",
    "hygiene_rating": 1,
    "cuisine": "Cafe",
    "tags": [
      "coffee",
      "breakfast"
    ]
  },
  {
    "_id": "5d010c32-395e-429d-be13-4916f30f71f1",
    "name": "Spice Grill Express",
    "address": "135 Lisburn Road",
    "postcode": "BT8 1BA",
    "hygiene_rating": 2,
    "cuisine": "Indian",
    "tags": [
      "curry",
      "spicy"
    ]
  },
  {
    "_id": "89c9c73a-ed23-4356-a85a-2fb3e08348a3",
    "name": "Malone Bistro Lounge",
    "address": "190 Falls Road",
    "postcode": "BT5 9AF",
    "hygiene_rating": 1,
    "cuisine": "British / Other",
    "tags": []
  },
  {
    "_id": "b235687a-097a-45da-9226-55f7b67ba5c6",
    "name": "Mama Wing",
    "address": "67 York Street",
    "postcode": "BT15 7BD",
    "hygiene_rating": 4,
    "cuisine": "British / Other",
    "tags": []
  },
  {
    "_id": "fa5d162c-4c6a-4981-80e8-b9823e6000f6",
    "name": "Crown Street Food Place",
    "address": "14 Albertbridge Road",
    "postcode": "BT14 2BG",
    "hygiene_rating": 4,
    "cuisine": "British / Other",
    "tags": []
  },
  {
    "_id": "343db591-e83c-4e24-8619-01797438bba3",
    "name": "Harbour Garden Express",
    "address": "224 Shore Road",
    "postcode": "BT5 7BA",
    "hygiene_rating": null,
    "cuisine": "British / Other",
    "tags": [],
    "lat": 54.591065,
    "lng": -5.850398
  },
  {
    "_id": "4c1adb09-96c6-4f20-abbf-719c74bae037",
    "name": "Papa Garden Corner",
    "address": "163 Donegall Road",
    "postcode": "BT1 1BF",
    "hygiene_rating": 5,
    "cuisine": "British / Other",
    "tags": []
  },
  {
    "_id": "2ee34446-ea5b-49df-ac4d-8d06dcb1cf5c",
    "name": "Mama House",
    "address": "105 Donegall Road",
    "postcode": "BT10 8AE",
    "hygiene_rating": null,
    "cuisine": "British / Other",
    "tags": []
  },
  {
    "_id": "57d61151-d670-4734-b346-5ae7e7c4f0f6",
    "name": "City Wing",
    "address": "214 Ballygomartin Road",
    "postcode": "BT9 4AA",
    "hygiene_rating": 1,
    "cuisine": "British / Other",
    "tags": []
  },
  {
    "_id": "dce4aa0a-063c-4e87-992a-45b051235596",
    "name": "Little Diner Spot",
    "address": "34 York Street",
    "postcode": "BT2 7AL",
    "hygiene_rating": 3,
    "cuisine": "British / Other",
    "tags": []
  },
  {
    "_id": "38f0a70b-de7b-4d59-aaff-3a116355c519",
    "name": "Ormeau Kitchen",
    "address": "136 Woodstock Road",
    "postcode": "BT5 7AB",
    "hygiene_rating": 3,
    "cuisine": "British / Other",
    "tags": [],
    "lat": 54.593205,
    "lng": -5.853535
  },
  {
    "_id": "274896fb-90e8-4609-9f52-56314c3f93fc",
    "name": "Spice Grill Hub",
    "address": "187 Castlereagh Road",
    "postcode": "BT9 9BA",
    "hygiene_rating": 4,
    "cuisine": "Indian",
    "tags": [
      "curry",
      "spicy"
    ]
  },
  {
    "_id": "67283b14-87d6-49e2-a589-d29a360516a5",
    "name": "Mama Chippy",
    "address": "92 Albertbridge Road",
    "postcode": "BT13 4AF",
    "hygiene_rating": 4,
    "cuisine": "Fish & Chips",
    "tags": [
      "fish",
      "chips"
    ]
  },
  {
    "_id": "288d7393-e4cd-4719-b9e5-5bbb8f4deae4",
    "name": "City Grill Hub",
    "address": "137 Ballygomartin Road",
    "postcode": "BT10 1AB",
    "hygiene_rating": 1,
    "cuisine": "Kebab",
    "tags": [
      "kebab"
    ]
  },
  {
    "_id": "ae3c2ece-3692-4ad9-ac5d-278ec8d95873",
    "name": "Ormeau Burger",
    "address": "36 Boucher Road",
    "postcode": "BT7 2AD",
    "hygiene_rating": 5,
    "cuisine": "Burgers",
    "tags": [
      "burger"
    ]
  },
  {
    "_id": "6213e5dd-013b-495c-895b-66782a4f6010",
    "name": "Urban Bistro",
    "address": "126 Botanic Avenue",
    "postcode": "BT13 2AE",
    "hygiene_rating": 2,
    "cuisine": "British / Other",
    "tags": []
  },
  {
    "_id": "5b58499f-dc90-4fe5-9a08-3a5c98b6b622",
    "name": "Dragon Kitchen Co.",
    "address": "200 Stranmillis Road",
    "postcode": "BT5 9AG",
    "hygiene_rating": null,
    "cuisine": "Chinese",
    "tags": [
      "noodles"
    ]
  },
  {
    "_id": "6ee19b82-b789-46c1-9a0e-5bab369b3b0e",
    "name": "Mama Café",
    "address": "3 University Road",
    "postcode": "BT5 7AD",
    "hygiene_rating": 1,
    "cuisine": "Cafe",
    "tags": [
      "coffee",
      "breakfast"
    ],
    "lat": 54.593274,
    "lng": -5.851798
  },
  {
    "_id": "c4270884-2cc8-44d1-940c-4ddc78744a91",
    "name": "Little Wing",
    "address": "214 Shankill Road",
    "postcode": "BT10 8AE",
    "hygiene_rating": 2,
    "cuisine": "British / Other",
    "tags": []
  },
  {
    "_id": "1c7b33e1-65f3-456a-b61c-d215650e7e75",
    "name": "Raven Slice Eatery",
    "address": "234 Albertbridge Road",
    "postcode": "BT4 8BA",
    "hygiene_rating": 4,
    "cuisine": "Italian",
    "tags": [
      "pizza"
    ]
  },
  {
    "_id": "94fcadc6-a899-47f7-9bc2-362016ccdb27",
    "name": "Raven Wok Lounge",
    "address": "2 Woodstock Road",
    "postcode": "BT1 9AG",
    "hygiene_rating": 5,
    "cuisine": "Chinese",
    "tags": [
      "noodles"
    ],
    "lat": null,
    "lng": null
  },
  {
    "_id": "b7ce3879-04bf-47d8-b5ff-086c676ffd2c",
    "name": "Ormeau Garden",
    "address": "232 Shankill Road",
    "postcode": "BT5 4BF",
    "hygiene_rating": 5,
    "cuisine": "British / Other",
    "tags": []
  },
  {
    "_id": "1d5a2e6d-8b3e-48a8-94ee-3db6383176bd",
    "name": "Crown Bakery Corner",
    "address": "219 Ormeau Road",
    "postcode": "BT5 6BA",
    "hygiene_rating": 4,
    "cuisine": "Bakery",
    "tags": [
      "dessert"
    ],
    "lat": 54.583024,
    "lng": -5.879935
  },
  {
    "_id": "7bbdb417-82fa-4950-b487-2fb1d7416c05",
    "name": "Belfast Wing Corner",
    "address": "188 Stranmillis Road",
    "postcode": "BT1 9AF",
    "hygiene_rating": 2,
    "cuisine": "British / Other",
    "tags": []
  },
  {
    "_id": "dd14832b-38ad-4bc0-958f-984c9488b79b",
    "name": "City Bakery",
    "address": "225 Newtownards Road",
    "postcode": "BT12 2BB",
    "hygiene_rating": 3,
    "cuisine": "Bakery",
    "tags": [
      "dessert"
    ]
  },
  {
    "_id": "93f305fc-084d-4b0c-8a4d-8cf10f71af6b",
    "name": "Raven Bistro Bar",
    "address": "27 Botanic Avenue",
    "postcode": "BT7 8BF",
    "hygiene_rating": 3,
    "cuisine": "British / Other",
    "tags": []
  },
  {
    "_id": "8b2404ed-bdde-4db0-b423-31c7e16d5c54",
    "name": "Dragon Kitchen",
    "address": "3 Ormeau Road",
    "postcode": "BT14 3AF",
    "hygiene_rating": null,
    "cuisine": "Chinese",
    "tags": [
      "noodles"
    ]
  },
  {
    "_id": "ea3d4015-fafb-49d2-9753-63d1434bb8c5",
    "name": "Harbour Bistro Palace",
    "address": "70 Castlereagh Road",
    "postcode": "BT14 7BG",
    "hygiene_rating": 4,
    "cuisine": "British / Other",
    "tags": [],
    "lat": 54.617564,
    "lng": -5.956294
  },
  {
    "_id": "97dce914-c773-42e7-a34b-15bdcbc54425",
    "name": "Dragon Wok Place",
    "address": "168 Newtownards Road",
    "postcode": "BT6 1AH",
    "hygiene_rating": 1,
    "cuisine": "Chinese",
    "tags": [
      "noodles"
    ]
  },
  {
    "_id": "fca0714a-ba8d-43d2-b2b2-c6d0780896e6",
    "name": "Belfast Curry",
    "address": "226 Malone Road",
    "postcode": "BT14 3BG",
    "hygiene_rating": 5,
    "cuisine": "Indian",
    "tags": [
      "curry",
      "spicy"
    ]
  },
  {
    "_id": "ff574c4d-7489-4f69-a6bc-ad6d1a256320",
    "name": "City Noodle Eatery",
    "address": "14 Royal Avenue",
    "postcode": "BT1 3BG",
    "hygiene_rating": 3,
    "cuisine": "Chinese",
    "tags": [
      "noodles"
    ],
    "lat": 54.606617,
    "lng": -5.9192
  },
  {
    "_id": "bdfc23e8-5bdc-4983-b67a-e1fcf709b602",
    "name": "Blue Bistro Lounge",
    "address": "62 Donegall Road",
    "postcode": "BT6 5AB",
    "hygiene_rating": 3,
    "cuisine": "British / Other",
    "tags": []
  },
  {
    "_id": "512ebfdd-f525-4c03-b06f-cb3f4ababdc6",
    "name": "Harbour Tandoori",
    "address": "159 Boucher Road",
    "postcode": "BT2 7AH",
    "hygiene_rating": 5,
    "cuisine": "Indian",
    "tags": [
      "curry",
      "spicy"
    ],
    "lat": 54.590831,
    "lng": -5.934425
  },
  {
    "_id": "f2ee8ea2-6967-41f0-91ac-299ef952a1b3",
    "name": "Botanic Pizza",
    "address": "210 Woodstock Road",
    "postcode": "BT4 2BF",
    "hygiene_rating": 5,
    "cuisine": "Italian",
    "tags": [
      "pizza"
    ]
  },
  {
    "_id": "706176ec-31c4-42cf-963e-9bc464cd4d5b",
    "name": "Green Garden",
    "address": "81 Castlereagh Road",
    "postcode": "BT2 8AA",
    "hygiene_rating": 2,
    "cuisine": "British / Other",
    "tags": [],
    "lat": 54.595351,
    "lng": -5.93025
  },
  {
    "_id": "dc79ee8f-9c8d-42ba-a961-b039d261d123",
    "name": "Dragon Wing Place",
    "address": "114 Cavehill Road",
    "postcode": "BT7 2AJ",
    "hygiene_rating": 5,
    "cuisine": "Chinese",
    "tags": [
      "noodles"
    ]
  },
  {
    "_id": "f431a017-a65a-4f6e-acf7-399891126387",
    "name": "Belfast Wok Eatery",
    "address": "212 Lisburn Road",
    "postcode": "BT2 5AG",
    "hygiene_rating": 1,
    "cuisine": "Chinese",
    "tags": [
      "noodles"
    ]
  },
  {
    "_id": "769bbcff-01b3-4ba2-8501-966e7f3c6f37",
    "name": "City Bakery Express",
    "address": "88 Lisburn Road",
    "postcode": "BT6 5BB",
    "hygiene_rating": 5,
    "cuisine": "Bakery",
    "tags": [
      "dessert"
    ]
  },
  {
    "_id": "f39eab08-1b1e-436e-9ddb-e10a59aa808c",
    "name": "Green Chippy Bar",
    "address": "217 Sandy Row",
    "postcode": "BT8 6BG",
    "hygiene_rating": 5,
    "cuisine": "Fish & Chips",
    "tags": [
      "fish",
      "chips"
    ],
    "lat": 54.564596,
    "lng": -5.908353
  },
  {
    "_id": "ccf0f8bb-da14-4bc2-b3ce-9f13d008cba2",
    "name": "Dragon Grill",
    "address": "36 Albertbridge Road",
    "postcode": "BT14 7AD",
    "hygiene_rating": 5,
    "cuisine": "Chinese",
    "tags": [
      "noodles"
    ]
  },
  {
    "_id": "95a5d5bd-ab6b-4963-996f-c272a22eedc6",
    "name": "Raven Grill",
    "address": "151 Malone Road",
    "postcode": "BT2 8BF",
    "hygiene_rating": 1,
    "cuisine": "Kebab",
    "tags": [
      "kebab"
    ]
  },
  {
    "_id": "eac02549-0f46-401f-a391-7d6ceeaca4dd",
    "name": "Ormeau House",
    "address": "136 Lisburn Road",
    "postcode": "BT12 1BE",
    "hygiene_rating": 3,
    "cuisine": "British / Other",
    "tags": []
  },
  {
    "_id": "6317603a-e218-4de1-880e-3ab65dbe1923",
    "name": "Urban Café Palace",
    "address": "118 Stranmillis Road",
    "postcode": "BT14 4BA",
    "hygiene_rating": 2,
    "cuisine": "Cafe",
    "tags": [
      "coffee",
      "breakfast"
    ]
  },
  {
    "_id": "3f080bad-b47d-4364-8061-42145cacb1b1",
    "name": "Belfast Chippy",
    "address": "108 Woodstock Road",
    "postcode": "BT10 4AJ",
    "hygiene_rating": 4,
    "cuisine": "Fish & Chips",
    "tags": [
      "fish",
      "chips"
    ]
  },
  {
    "_id": "e57dc1f5-a439-4a12-9aa8-fb50258f1487",
    "name": "Malone Chippy",
    "address": "162 Great Victoria Street",
    "postcode": "BT4 4AG",
    "hygiene_rating": 2,
    "cuisine": "Fish & Chips",
    "tags": [
      "fish",
      "chips"
    ]
  },
  {
    "_id": "e55bde1a-51c3-4503-829f-bd00447253ea",
    "name": "Harbour Slice Corner",
    "address": "106 Falls Road",
    "postcode": "BT10 9AL",
    "hygiene_rating": 3,
    "cuisine": "Italian",
    "tags": [
      "pizza"
    ]
  },
  {
    "_id": "a309bf1e-e029-4a64-a2fa-7bf7404d439d",
    "name": "Cathedral Curry",
    "address": "182 Falls Road",
    "postcode": "BT11 3BA",
    "hygiene_rating": 5,
    "cuisine": "Indian",
    "tags": [
      "curry",
      "spicy"
    ]
  },
  {
    "_id": "94d365da-f498-4715-bb60-2cb7a31d3ddf",
    "name": "Blue Tandoori",
    "address": "178 Botanic Avenue",
    "postcode": "BT10 3AE",
    "hygiene_rating": 2,
    "cuisine": "Indian",
    "tags": [
      "curry",
      "spicy"
    ]
  },
  {
    "_id": "ffeb508d-1d1d-42fc-a77d-e71c4a63f415",
    "name": "Malone Noodle Hub",
    "address": "171 Boucher Road",
    "postcode": "BT1 7BD",
    "hygiene_rating": 4,
    "cuisine": "Chinese",
    "tags": [
      "noodles"
    ]
  },
  {
    "_id": "84b7d835-bf7f-415a-a42f-6e960d7b8cc3",
    "name": "Crown Bistro",
    "address": "65 Malone Road",
    "postcode": "BT3 1AL",
    "hygiene_rating": 4,
    "cuisine": "British / Other",
    "tags": []
  },
  {
    "_id": "4c3b86bd-b906-450c-ac69-ce01286726ef",
    "name": "Raven Wing",
    "address": "98 Lisburn Road",
    "postcode": "BT3 1AB",
    "hygiene_rating": 4,
    "cuisine": "British / Other",
    "tags": []
  },
  {
    "_id": "c640c8d4-cfd3-4fb5-af55-f882b9b35268",
    "name": "Malone Grill Lounge",
    "address": "158 Shankill Road",
    "postcode": "BT14 9AH",
    "hygiene_rating": 5,
    "cuisine": "Kebab",
    "tags": [
      "kebab"
    ]
  },
  {
    "_id": "86c124b5-da4c-4a33-8dd8-34c072655b84",
    "name": "City Street Food",
    "address": "51 Royal Avenue",
    "postcode": "BT13 4AL",
    "hygiene_rating": 5,
    "cuisine": "British / Other",
    "tags": []
  },
  {
    "_id": "073cef3d-9c55-4de1-afce-1bf6bc494057",
    "name": "Dragon Curry",
    "address": "147 Howard Street",
    "postcode": "BT11 7AL",
    "hygiene_rating": 3,
    "cuisine": "Indian",
    "tags": [
      "curry",
      "spicy"
    ]
  },
  {
    "_id": "961634b7-6fcf-4f5e-bfef-67fc92d9d8a3",
    "name": "Harbour Pizza Hub",
    "address": "159 Stranmillis Road",
    "postcode": "BT14 8AH",
    "hygiene_rating": 1,
    "cuisine": "Italian",
    "tags": [
      "pizza"
    ],
    "lat": 54.621606,
    "lng": -5.974919
  },
  {
    "_id": "96f91909-e773-4ffe-b78e-0a08d4618f9e",
    "name": "Ormeau Bistro Eatery",
    "address": "24 Woodstock Road",
    "postcode": "BT6 4AG",
    "hygiene_rating": 1,
    "cuisine": "British / Other",
    "tags": []
  },
  {
    "_id": "f8df37e9-e7e1-4a09-9920-e0fa0cee3e30",
    "name": "Golden Slice",
    "address": "83 Stranmillis Road",
    "postcode": "BT9 2AD",
    "hygiene_rating": 3,
    "cuisine": "Italian",
    "tags": [
      "pizza"
    ]
  },
  {
    "_id": "91187c87-9239-4fe3-a7a3-1f6549f3a5a5",
    "name": "Mama Grill Spot",
    "address": "14 Royal Avenue",
    "postcode": "BT13 5BG",
    "hygiene_rating": 4,
    "cuisine": "Kebab",
    "tags": [
      "kebab"
    ]
  },
  {
    "_id": "596a5886-cc91-4ae8-9000-6871b3986e3c",
    "name": "Malone Curry Spot",
    "address": "57 Holywood Road",
    "postcode": "BT3 9AC",
    "hygiene_rating": 4,
    "cuisine": "Indian",
    "tags": [
      "curry",
      "spicy"
    ]
  },
  {
    "_id": "776e66af-4166-4e00-ac2c-2fb2f93c54d0",
    "name": "Crown Pizza Express",
    "address": "105 Newtownards Road",
    "postcode": "BT7 8BD",
    "hygiene_rating": 4,
    "cuisine": "Italian",
    "tags": [
      "pizza"
    ]
  },
  {
    "_id": "b914ec7e-845e-4231-a6fb-2acd547636a9",
    "name": "Papa Garden Corner",
    "address": "132 Shore Road",
    "postcode": "BT2 7AB",
    "hygiene_rating": 4,
    "cuisine": "British / Other",
    "tags": []
  },
  {
    "_id": "2e50a5aa-3c34-4159-b394-020f065202f7",
    "name": "Crown Pizza Corner",
    "address": "217 Howard Street",
    "postcode": "BT5 1BA",
    "hygiene_rating": 5,
    "cuisine": "Italian",
    "tags": [
      "pizza"
    ]
  },
  {
    "_id": "2e4af58c-a324-4372-ac6d-874d00fdae36",
    "name": "Dragon Noodle Hub",
    "address": "234 Lisburn Road",
    "postcode": "BT9 6BF",
    "hygiene_rating": 5,
    "cuisine": "Chinese",
    "tags": [
      "noodles"
    ]
  },
  {
    "_id": "a04ce4f8-c4a3-4a61-a8ab-bc25d4efa19c",
    "name": "Belfast Pizza Corner",
    "address": "174 York Street",
    "postcode": "BT15 6AA",
    "hygiene_rating": 3,
    "cuisine": "Italian",
    "tags": [
      "pizza"
    ]
  },
  {
    "_id": "1a2e16e9-79b6-4d42-ba65-a51d94b431e5",
    "name": "City Bakery Co.",
    "address": "63 Royal Avenue",
    "postcode": "BT1 6BD",
    "hygiene_rating": 4,
    "cuisine": "Bakery",
    "tags": [
      "dessert"
    ],
    "lat": 54.598821,
    "lng": -5.935073
  },
  {
    "_id": "96904107-4e9b-4b37-ac40-8f1d1e316751",
    "name": "Green Noodle Bar",
    "address": "41 Albertbridge Road",
    "postcode": "BT9 4AE",
    "hygiene_rating": 5,
    "cuisine": "Chinese",
    "tags": [
      "noodles"
    ]
  },
  {
    "_id": "32bdeeab-7e7f-4d02-948d-4da03a15f880",
    "name": "Harbour Chippy Express",
    "address": "159 Ballygomartin Road",
    "postcode": "BT9 8AA",
    "hygiene_rating": 2,
    "cuisine": "Fish & Chips",
    "tags": [
      "fish",
      "chips"
    ]
  },
  {
    "_id": "d2326a50-3ada-4b57-b4e9-ea48ff3e6407",
    "name": "Dragon Bistro",
    "address": "219 Howard Street",
    "postcode": "BT1 9BF",
    "hygiene_rating": 1,
    "cuisine": "Chinese",
    "tags": [
      "noodles"
    ]
  },
  {
    "_id": "50c45918-8755-41c2-a1f6-b0ab2f9ac017",
    "name": "Mama Wing Spot",
    "address": "23 Ormeau Road",
    "postcode": "BT2 1AF",
    "hygiene_rating": 4,
    "cuisine": "British / Other",
    "tags": []
  },
  {
    "_id": "478aeaf5-df53-46d4-aece-ccf2c285ea4e",
    "name": "Mama Diner Co.",
    "address": "231 Antrim Road",
    "postcode": "BT4 6BG",
    "hygiene_rating": 5,
    "cuisine": "British / Other",
    "tags": []
  },
  {
    "_id": "6454059b-e3d4-4ba3-8d30-d0c4e78d12d1",
    "name": "Malone Pizza Place",
    "address": "172 Stranmillis Road",
    "postcode": "BT11 4BE",
    "hygiene_rating": 3,
    "cuisine": "Italian",
    "tags": [
      "pizza"
    ]
  },
  {
    "_id": "7667d236-1738-4cef-86ee-a1ea7e3fe08f",
    "name": "City House",
    "address": "225 Donegall Road",
    "postcode": "BT8 8BF",
    "hygiene_rating": null,
    "cuisine": "British / Other",
    "tags": [],
    "lat": 54.512491,
    "lng": -5.901613
  },
  {
    "_id": "fa5f092e-3b09-4654-8f44-09aa15547e5f",
    "name": "Harbour Slice",
    "address": "145 Falls Road",
    "postcode": "BT10 6BA",
    "hygiene_rating": 4,
    "cuisine": "Italian",
    "tags": [
      "pizza"
    ]
  },
  {
    "_id": "18ccb483-da63-4d28-877c-31874d91a551",
    "name": "Dragon Café",
    "address": "225 Boucher Road",
    "postcode": "BT12 7AC",
    "hygiene_rating": 5,
    "cuisine": "Chinese",
    "tags": [
      "noodles"
    ]
  },
  {
    "_id": "25e19659-a3ed-4b4d-96a0-5f27254bdba1",
    "name": "Malone House Bar",
    "address": "153 Howard Street",
    "postcode": "BT7 9AC",
    "hygiene_rating": 5,
    "cuisine": "British / Other",
    "tags": []
  },
  {
    "_id": "d4c6ac1a-14bc-438a-bf52-51dcdbe66e2a",
    "name": "Harbour Wing Place",
    "address": "2 Great Victoria Street",
    "postcode": "BT11 2AB",
    "hygiene_rating": 5,
    "cuisine": "British / Other",
    "tags": []
  },
  {
    "_id": "386c07ef-d4b6-4eb9-9957-681f97a094c2",
    "name": "Mama Pizza Place",
    "address": "20 Shore Road",
    "postcode": "BT15 1AA",
    "hygiene_rating": 3,
    "cuisine": "Italian",
    "tags": [
      "pizza"
    ],
    "lat": 54.604622,
    "lng": -5.929656
  },
  {
    "_id": "034b92e6-2e97-4539-9306-7c2ed8ff2906",
    "name": "Papa Wing Express",
    "address": "190 Boucher Road",
    "postcode": "BT11 7AJ",
    "hygiene_rating": 3,
    "cuisine": "British / Other",
    "tags": []
  },
  {
    "_id": "488989f6-c862-40dc-b4a4-e162965d6983",
    "name": "Cathedral Sushi",
    "address": "166 Botanic Avenue",
    "postcode": "BT10 2AJ",
    "hygiene_rating": 3,
    "cuisine": "Japanese",
    "tags": [
      "sushi"
    ]
  },
  {
    "_id": "cfc61043-0cda-41c7-b95d-ccf6615c3759",
    "name": "Spice Curry",
    "address": "75 Shankill Road",
    "postcode": "BT13 5AC",
    "hygiene_rating": 5,
    "cuisine": "Indian",
    "tags": [
      "curry",
      "spicy"
    ]
  },
  {
    "_id": "3eac639e-4b94-4d11-9a4c-9d619dc73869",
    "name": "Harbour Kitchen",
    "address": "163 Holywood Road",
    "postcode": "BT14 5AJ",
    "hygiene_rating": 2,
    "cuisine": "British / Other",
    "tags": []
  },
  {
    "_id": "a7b49964-b005-41bc-bf57-0f0baf08cb89",
    "name": "Urban Curry Eatery",
    "address": "42 Falls Road",
    "postcode": "BT3 4AJ",
    "hygiene_rating": 4,
    "cuisine": "Indian",
    "tags": [
      "curry",
      "spicy"
    ]
  },
  {
    "_id": "faa1c1e1-41f6-46b5-b774-5e5808fc2c47",
    "name": "Urban Tandoori",
    "address": "100 Ravenhill Road",
    "postcode": "BT8 8AB",
    "hygiene_rating": 1,
    "cuisine": "Indian",
    "tags": [
      "curry",
      "spicy"
    ],
    "lat": 54.533385,
    "lng": -5.880208
  },
  {
    "_id": "02f001a2-51a4-4d92-a5ac-c9e863f903ac",
    "name": "Botanic Tandoori Spot",
    "address": "203 Albertbridge Road",
    "postcode": "BT8 1AE",
    "hygiene_rating": 5,
    "cuisine": "Indian",
    "tags": [
      "curry",
      "spicy"
    ]
  },
  {
    "_id": "f91dc72e-5cc6-4aa2-8116-7cf7b131aa18",
    "name": "Dragon Diner Spot",
    "address": "30 Shore Road",
    "postcode": "BT8 8BG",
    "hygiene_rating": 4,
    "cuisine": "Chinese",
    "tags": [
      "noodles"
    ],
    "lat": 54.524366,
    "lng": -5.884923
  },
  {
    "_id": "541674b8-35df-437a-a430-d8ba3026bdd3",
    "name": "Papa Diner Hub",
    "address": "39 Stranmillis Road",
    "postcode": "BT3 3BB",
    "hygiene_rating": 2,
    "cuisine": "British / Other",
    "tags": []
  },
  {
    "_id": "10b5bc0b-d5ce-4a7a-8207-95afbbc9f595",
    "name": "Papa Wok Bar",
    "address": "147 Falls Road",
    "postcode": "BT10 3AE",
    "hygiene_rating": 1,
    "cuisine": "Chinese",
    "tags": [
      "noodles"
    ]
  },
  {
    "_id": "89135885-3f9e-42fd-af31-3e6034903905",
    "name": "Ormeau Garden Eatery",
    "address": "170 Lisburn Road",
    "postcode": "BT4 3AE",
    "hygiene_rating": 5,
    "cuisine": "British / Other",
    "tags": [],
    "lat": 54.597779,
    "lng": -5.88412
  },
  {
    "_id": "583dfce9-cfd4-4af5-8c80-a734b200e225",
    "name": "Ormeau Grill",
    "address": "15 Falls Road",
    "postcode": "BT3 5AF",
    "hygiene_rating": 3,
    "cuisine": "Kebab",
    "tags": [
      "kebab"
    ]
  },
  {
    "_id": "95f95136-30f2-49a6-a6af-5916dbf1daa3",
    "name": "Green Sushi",
    "address": "57 Botanic Avenue",
    "postcode": "BT14 7AE",
    "hygiene_rating": 4,
    "cuisine": "Japanese",
    "tags": [
      "sushi"
    ],
    "lat": 54.610674,
    "lng": -5.949472
  },
  {
    "_id": "e4ff33b0-c04d-442c-976a-4740cd6d57d6",
    "name": "Belfast Street Food",
    "address": "187 Shore Road",
    "postcode": "BT11 5AC",
    "hygiene_rating": 4,
    "cuisine": "British / Other",
    "tags": []
  },
  {
    "_id": "f5287af1-fa5c-4633-a4b5-1bb786ecb0f4",
    "name": "Papa Tandoori Spot",
    "address": "153 Castlereagh Road",
    "postcode": "BT10 2AH",
    "hygiene_rating": 4,
    "cuisine": "Indian",
    "tags": [
      "curry",
      "spicy"
    ]
  },
  {
    "_id": "4115c9a0-cc20-4609-b302-2dfc54337447",
    "name": "Blue House",
    "address": "212 Great Victoria Street",
    "postcode": "BT1 7BE",
    "hygiene_rating": null,
    "cuisine": "British / Other",
    "tags": []
  },
  {
    "_id": "ac58ee9c-66cf-4078-81ff-3c005b653320",
    "name": "Belfast House Express",
    "address": "221 Holywood Road",
    "postcode": "BT15 9BE",
    "hygiene_rating": 3,
    "cuisine": "British / Other",
    "tags": []
  },
  {
    "_id": "abb9b6c9-7b01-4bd1-a592-fa2e00adc33a",
    "name": "Golden Tandoori Lounge",
    "address": "98 Ballygomartin Road",
    "postcode": "BT6 2BE",
    "hygiene_rating": 3,
    "cuisine": "Indian",
    "tags": [
      "curry",
      "spicy"
    ]
  },
  {
    "_id": "506a483b-4a6a-4ead-9137-e16ffe214625",
    "name": "Mama Kitchen Co.",
    "address": "10 Royal Avenue",
    "postcode": "BT15 9AD",
    "hygiene_rating": 2,
    "cuisine": "British / Other",
    "tags": []
  },
  {
    "_id": "aee53655-ccbf-4ef6-9bdc-ba292f0c75e0",
    "name": "Belfast Street Food Bar",
    "address": "67 Great Victoria Street",
    "postcode": "BT9 9BG",
    "hygiene_rating": 1,
    "cuisine": "British / Other",
    "tags": []
  },
  {
    "_id": "e387945b-3b62-48a3-adbf-305aaae5f06b",
    "name": "Urban Wing",
    "address": "148 Lisburn Road",
    "postcode": "BT9 2AA",
    "hygiene_rating": 4,
    "cuisine": "British / Other",
    "tags": []
  },
  {
    "_id": "0f6e9b45-fc3c-401f-9a98-59b5cf2d460b",
    "name": "Crown Sushi",
    "address": "73 Antrim Road",
    "postcode": "BT10 9BE",
    "hygiene_rating": 5,
    "cuisine": "Japanese",
    "tags": [
      "sushi"
    ]
  },
  {
    "_id": "f16ece5d-211d-441a-9816-5311ae09c762",
    "name": "Malone Wok",
    "address": "71 Royal Avenue",
    "postcode": "BT11 7AG",
    "hygiene_rating": 4,
    "cuisine": "Chinese",
    "tags": [
      "noodles"
    ]
  },
  {
    "_id": "9d79402c-851f-4e64-ae57-55ab8e4a5d67",
    "name": "City Noodle",
    "address": "31 Malone Road",
    "postcode": "BT12 4BF",
    "hygiene_rating": 4,
    "cuisine": "Chinese",
    "tags": [
      "noodles"
    ]
  },
  {
    "_id": "fa307e5d-e230-401b-b6ba-b27d794ecd92",
    "name": "Urban Chippy Place",
    "address": "110 Falls Road",
    "postcode": "BT11 5AJ",
    "hygiene_rating": 3,
    "cuisine": "Fish & Chips",
    "tags": [
      "fish",
      "chips"
    ]
  },
  {
    "_id": "7dba8098-73ad-4b7a-9e63-1a04b4ca2589",
    "name": "Malone Pizza Spot",
    "address": "143 Great Victoria Street",
    "postcode": "BT8 5AL",
    "hygiene_rating": 2,
    "cuisine": "Italian",
    "tags": [
      "pizza"
    ]
  },
  {
    "_id": "98e588b9-aad5-4ef0-ae12-3f7ab8b443e5",
    "name": "Papa Kitchen Palace",
    "address": "206 Donegall Road",
    "postcode": "BT9 1AF",
    "hygiene_rating": 4,
    "cuisine": "British / Other",
    "tags": []
  },
  {
    "_id": "9b53b1dc-42fc-4d11-a5f7-1fe7b5b5cf75",
    "name": "Papa Bistro",
    "address": "169 Howard Street",
    "postcode": "BT14 3BG",
    "hygiene_rating": null,
    "cuisine": "British / Other",
    "tags": []
  },
  {
    "_id": "0cf0f055-f060-464e-a3f6-96a487a9e61c",
    "name": "Mama Curry Co.",
    "address": "220 Shore Road",
    "postcode": "BT5 3BF",
    "hygiene_rating": 3,
    "cuisine": "Indian",
    "tags": [
      "curry",
      "spicy"
    ]
  },
  {
    "_id": "a7452463-70ed-4b37-914b-582b95b0a61a",
    "name": "Golden Diner",
    "address": "17 Sandy Row",
    "postcode": "BT5 6AH",
    "hygiene_rating": 1,
    "cuisine": "British / Other",
    "tags": [],
    "lat": 54.58612,
    "lng": -5.886411
  },
  {
    "_id": "08a9c6e4-b224-49c8-aff8-618e6f9efc9a",
    "name": "Malone Garden Place",
    "address": "26 Newtownards Road",
    "postcode": "BT4 8BA",
    "hygiene_rating": null,
    "cuisine": "British / Other",
    "tags": []
  },
  {
    "_id": "b153f473-675c-44b7-a24b-ab9febcb6fe3",
    "name": "Malone Street Food Palace",
    "address": "151 Ravenhill Road",
    "postcode": "BT11 2AJ",
    "hygiene_rating": 4,
    "cuisine": "British / Other",
    "tags": []
  },
  {
    "_id": "4ed8f3f1-e489-4ccc-96aa-8784b780720a",
    "name": "Little Garden",
    "address": "238 Albertbridge Road",
    "postcode": "BT10 7AC",
    "hygiene_rating": 2,
    "cuisine": "British / Other",
    "tags": []
  },
  {
    "_id": "bfcdd1ea-7b54-4d61-9622-80f45e6d49d9",
    "name": "Crown Diner Co.",
    "address": "186 Ormeau Road",
    "postcode": "BT7 7AL",
    "hygiene_rating": 5,
    "cuisine": "British / Other",
    "tags": []
  },
  {
    "_id": "432a96e5-4938-4b35-bb72-895352e3ee35",
    "name": "Golden Bistro",
    "address": "3 Castlereagh Road",
    "postcode": "BT4 9AL",
    "hygiene_rating": 4,
    "cuisine": "British / Other",
    "tags": []
  },
  {
    "_id": "d0cdcbe8-ff30-49cb-abb9-0f4027c13a69",
    "name": "Golden Tandoori",
    "address": "158 Sandy Row",
    "postcode": "BT3 1BB",
    "hygiene_rating": 4,
    "cuisine": "Indian",
    "tags": [
      "curry",
      "spicy"
    ]
  },
  {
    "_id": "5044e2bd-2a3f-4212-aa5b-86d9e77ff81a",
    "name": "Little Bistro Hub",
    "address": "103 Ballygomartin Road",
    "postcode": "BT6 7BD",
    "hygiene_rating": 2,
    "cuisine": "British / Other",
    "tags": []
  },
  {
    "_id": "eb23a489-a4fa-4ef0-bed7-6feae72823bb",
    "name": "Urban Tandoori Place",
    "address": "141 Antrim Road",
    "postcode": "BT5 9BB",
    "hygiene_rating": null,
    "cuisine": "Indian",
    "tags": [
      "curry",
      "spicy"
    ]
  },
  {
    "_id": "6b6c7929-95ab-4f87-88af-e2225d45dbcd",
    "name": "Crown Diner",
    "address": "117 Stranmillis Road",
    "postcode": "BT15 7AA",
    "hygiene_rating": 5,
    "cuisine": "British / Other",
    "tags": []
  },
  {
    "_id": "d6282038-b3a8-433c-b11b-229379936e7e",
    "name": "Papa Wok",
    "address": "19 Great Victoria Street",
    "postcode": "BT9 5BA",
    "hygiene_rating": 2,
    "cuisine": "Chinese",
    "tags": [
      "noodles"
    ],
    "lat": 54.57924,
    "lng": -5.931794
  },
  {
    "_id": "1c98be53-a3da-457b-adec-59c0ca7dfbf6",
    "name": "Blue Diner",
    "address": "118 Ballygomartin Road",
    "postcode": "BT11 8AA",
    "hygiene_rating": 5,
    "cuisine": "British / Other",
    "tags": [],
    "lat": 54.58485,
    "lng": -5.979838
  },
  {
    "_id": "1afd124a-8d92-405e-bea4-83ce7601a6a3",
    "name": "Ormeau Burger",
    "address": "65 Howard Street",
    "postcode": "BT12 8BD",
    "hygiene_rating": 2,
    "cuisine": "Burgers",
    "tags": [
      "burger"
    ]
  },
  {
    "_id": "5707c3d2-2367-4f4f-9282-a134bbd1a6b6",
    "name": "Dragon Burger Express",
    "address": "180 Malone Road",
    "postcode": "BT4 6BE",
    "hygiene_rating": null,
    "cuisine": "Chinese",
    "tags": [
      "noodles"
    ]
  },
  {
    "_id": "00a36b98-6df6-4aea-a84d-523f93a1df98",
    "name": "Ormeau Pizza Hub",
    "address": "74 Sandy Row",
    "postcode": "BT2 7BA",
    "hygiene_rating": 2,
    "cuisine": "Italian",
    "tags": [
      "pizza"
    ],
    "lat": 54.595011,
    "lng": -5.933997
  },
  {
    "_id": "73accf00-d89b-4745-b4c8-d8385474938c",
    "name": "Urban Sushi",
    "address": "189 Sandy Row",
    "postcode": "BT4 5AG",
    "hygiene_rating": 4,
    "cuisine": "Japanese",
    "tags": [
      "sushi"
    ]
  },
  {
    "_id": "598bdaf4-4c8c-48eb-883a-b0ef46431001",
    "name": "Urban Diner",
    "address": "40 Ravenhill Road",
    "postcode": "BT13 2AD",
    "hygiene_rating": 2,
    "cuisine": "British / Other",
    "tags": [],
    "lat": 54.603328,
    "lng": -5.940153
  },
  {
    "_id": "fd5fe7c0-7cce-4d5a-a4c2-b174b97ff9f9",
    "name": "Blue Wing",
    "address": "246 Great Victoria Street",
    "postcode": "BT1 8BB",
    "hygiene_rating": 2,
    "cuisine": "British / Other",
    "tags": []
  },
  {
    "_id": "977306e4-991b-4342-a08a-ed919062296b",
    "name": "Malone Bistro Spot",
    "address": "229 Stranmillis Road",
    "postcode": "BT10 5AF",
    "hygiene_rating": 5,
    "cuisine": "British / Other",
    "tags": []
  },
  {
    "_id": "fcfe6dd8-c4a1-4214-84ff-2262b0f78729",
    "name": "Harbour Sushi",
    "address": "223 Howard Street",
    "postcode": "BT5 8AF",
    "hygiene_rating": 4,
    "cuisine": "Japanese",
    "tags": [
      "sushi"
    ]
  },
  {
    "_id": "d7a12575-bcbc-4b6c-9156-d8fc51e4535c",
    "name": "Ormeau Burger Co.",
    "address": "14 Falls Road",
    "postcode": "BT9 7BG",
    "hygiene_rating": 3,
    "cuisine": "Burgers",
    "tags": [
      "burger"
    ],
    "lat": 54.584453,
    "lng": -5.946149
  },
  {
    "_id": "340caaea-c775-4c7a-a28d-5238f6c69e73",
    "name": "Golden Tandoori Corner",
    "address": "250 Castlereagh Road",
    "postcode": "BT2 9BF",
    "hygiene_rating": null,
    "cuisine": "Indian",
    "tags": [
      "curry",
      "spicy"
    ]
  },
  {
    "_id": "c092d6b5-effa-4930-950c-a934fc4d048b",
    "name": "Crown Bistro",
    "address": "69 Sandy Row",
    "postcode": "BT8 6BB",
    "hygiene_rating": 3,
    "cuisine": "British / Other",
    "tags": [],
    "lat": 54.547346,
    "lng": -5.898633
  },
  {
    "_id": "639d9d61-b043-445b-982b-22ec198b55a5",
    "name": "Little Wing",
    "address": "149 Woodstock Road",
    "postcode": "BT2 6BB",
    "hygiene_rating": 2,
    "cuisine": "British / Other",
    "tags": []
  },
  {
    "_id": "63f0c6e9-98c7-40db-94b3-5da41594507f",
    "name": "Mama Street Food",
    "address": "185 Shankill Road",
    "postcode": "BT5 4BE",
    "hygiene_rating": 3,
    "cuisine": "British / Other",
    "tags": []
  },
  {
    "_id": "5c6a89bf-7381-4218-a98f-b32560119105",
    "name": "Blue Wok Spot",
    "address": "219 Ravenhill Road",
    "postcode": "BT7 5BF",
    "hygiene_rating": 3,
    "cuisine": "Chinese",
    "tags": [
      "noodles"
    ]
  },
  {
    "_id": "7e145d62-d814-4fa3-bbf4-9e72ef307374",
    "name": "Belfast Café Corner",
    "address": "207 Albertbridge Road",
    "postcode": "BT1 3BE",
    "hygiene_rating": 5,
    "cuisine": "Cafe",
    "tags": [
      "coffee",
      "breakfast"
    ]
  },
  {
    "_id": "c2cd7dcd-8fcf-489e-93de-feaa75134741",
    "name": "Mama Tandoori",
    "address": "202 Donegall Road",
    "postcode": "BT8 5AJ",
    "hygiene_rating": 3,
    "cuisine": "Indian",
    "tags": [
      "curry",
      "spicy"
    ]
  },
  {
    "_id": "6e45f95c-77df-4fc7-9e7f-26caf4caf219",
    "name": "Belfast Garden Spot",
    "address": "81 Sandy Row",
    "postcode": "BT6 5AJ",
    "hygiene_rating": 2,
    "cuisine": "British / Other",
    "tags": []
  },
  {
    "_id": "95462352-22d2-4b8d-91c9-96ea702c5c2b",
    "name": "Little Wok Co.",
    "address": "148 Stranmillis Road",
    "postcode": "BT10 9AF",
    "hygiene_rating": 4,
    "cuisine": "Chinese",
    "tags": [
      "noodles"
    ]
  },
  {
    "_id": "e8e56405-3b75-4db8-bcd8-13f84b7c4fec",
    "name": "Cathedral Curry Eatery",
    "address": "199 Albertbridge Road",
    "postcode": "BT12 8AC",
    "hygiene_rating": 4,
    "cuisine": "Indian",
    "tags": [
      "curry",
      "spicy"
    ]
  },
  {
    "_id": "30e4b0d8-5ada-4a66-b685-f4e455d79d59",
    "name": "Dragon Bakery",
    "address": "93 Newtownards Road",
    "postcode": "BT6 9AJ",
    "hygiene_rating": null,
    "cuisine": "Chinese",
    "tags": [
      "noodles"
    ]
  },
  {
    "_id": "b93f4d64-65db-4d6f-aab0-54819951d4f4",
    "name": "Golden Noodle Corner",
    "address": "56 Ormeau Road",
    "postcode": "BT14 5BG",
    "hygiene_rating": 3,
    "cuisine": "Chinese",
    "tags": [
      "noodles"
    ]
  },
  {
    "_id": "3a00b0de-d8d6-4e5a-9efa-7cd0eefacd29",
    "name": "Cathedral Bakery",
    "address": "223 Falls Road",
    "postcode": "BT3 6BE",
    "hygiene_rating": 1,
    "cuisine": "Bakery",
    "tags": [
      "dessert"
    ]
  },
  {
    "_id": "c6af36e7-c136-415f-8e1f-f8d8dfe41b38",
    "name": "Belfast Burger",
    "address": "221 Ballygomartin Road",
    "postcode": "BT6 9BF",
    "hygiene_rating": 4,
    "cuisine": "Burgers",
    "tags": [
      "burger"
    ]
  },
  {
    "_id": "6d1b8161-1a95-454b-bcaf-2141de7a15c2",
    "name": "Papa Noodle Place",
    "address": "141 Albertbridge Road",
    "postcode": "BT1 1BD",
    "hygiene_rating": 3,
    "cuisine": "Chinese",
    "tags": [
      "noodles"
    ]
  },
  {
    "_id": "e2cb6807-ec60-4553-a5ce-98e27ebfa8d4",
    "name": "Papa Bistro",
    "address": "187 Falls Road",
    "postcode": "BT4 5AC",
    "hygiene_rating": 4,
    "cuisine": "British / Other",
    "tags": []
  },
  {
    "_id": "e1fba332-0b39-47b3-9350-50c6090e4aec",
    "name": "Spice Kitchen Corner",
    "address": "168 Antrim Road",
    "postcode": "BT15 7AL",
    "hygiene_rating": 4,
    "cuisine": "Indian",
    "tags": [
      "curry",
      "spicy"
    ]
  },
  {
    "_id": "a26a122b-db2e-4588-a689-c3e795b610ce",
    "name": "Botanic Slice Corner",
    "address": "135 Falls Road",
    "postcode": "BT14 3AA",
    "hygiene_rating": 1,
    "cuisine": "Italian",
    "tags": [
      "pizza"
    ]
  },
  {
    "_id": "93aaa8a8-7073-43d1-a6fa-fb8689f90572",
    "name": "City Chippy",
    "address": "250 Castlereagh Road",
    "postcode": "BT14 9AJ",
    "hygiene_rating": 3,
    "cuisine": "Fish & Chips",
    "tags": [
      "fish",
      "chips"
    ]
  },
  {
    "_id": "6c85d03b-53a8-403b-9276-d3874c59fa10",
    "name": "Malone Slice",
    "address": "139 Albertbridge Road",
    "postcode": "BT4 2BF",
    "hygiene_rating": 5,
    "cuisine": "Italian",
    "tags": [
      "pizza"
    ]
  },
  {
    "_id": "971349d7-6d0e-48cd-8762-e6a3b7fc79fe",
    "name": "Green House",
    "address": "139 Boucher Road",
    "postcode": "BT3 8BE",
    "hygiene_rating": 3,
    "cuisine": "British / Other",
    "tags": []
  },
  {
    "_id": "23141bff-260d-43a8-98fe-c4af82c04ea6",
    "name": "City Wok Hub",
    "address": "1 Lisburn Road",
    "postcode": "BT9 3BB",
    "hygiene_rating": 5,
    "cuisine": "Chinese",
    "tags": [
      "noodles"
    ]
  },
  {
    "_id": "15250080-ecb3-4f3a-9164-982a820f0282",
    "name": "Blue Pizza Lounge",
    "address": "123 Ballygomartin Road",
    "postcode": "BT5 1BE",
    "hygiene_rating": 4,
    "cuisine": "Italian",
    "tags": [
      "pizza"
    ]
  },
  {
    "_id": "cb9aafb1-9c5f-465f-8088-fb858ba7c688",
    "name": "Botanic Bistro",
    "address": "100 University Road",
    "postcode": "BT14 7AH",
    "hygiene_rating": 5,
    "cuisine": "British / Other",
    "tags": [],
    "lat": 54.61408,
    "lng": -5.951112
  },
  {
    "_id": "cffd1e18-d3d6-40a4-a341-ae83072e7595",
    "name": "Malone Burger Place",
    "address": "35 Botanic Avenue",
    "postcode": "BT5 2BF",
    "hygiene_rating": 2,
    "cuisine": "Burgers",
    "tags": [
      "burger"
    ]
  },
  {
    "_id": "4a7dc88c-1ba0-46ec-9d83-a55754c877d6",
    "name": "Cathedral Diner",
    "address": "96 Great Victoria Street",
    "postcode": "BT4 7BE",
    "hygiene_rating": 4,
    "cuisine": "British / Other",
    "tags": []
  },
  {
    "_id": "26e1ae9d-cb69-425c-b25d-b10ca5567e7b",
    "name": "Spice Wok",
    "address": "196 Holywood Road",
    "postcode": "BT13 5AL",
    "hygiene_rating": 1,
    "cuisine": "Indian",
    "tags": [
      "curry",
      "spicy"
    ]
  },
  {
    "_id": "dece2ce9-551d-41cc-bcfa-0b37c9b2faab",
    "name": "Malone Wing Place",
    "address": "69 York Street",
    "postcode": "BT3 8AA",
    "hygiene_rating": 4,
    "cuisine": "British / Other",
    "tags": []
  },
  {
    "_id": "9679cdd6-7688-4def-9a37-8ff5bd5ebce1",
    "name": "Blue Bistro Hub",
    "address": "213 Woodstock Road",
    "postcode": "BT1 2AH",
    "hygiene_rating": 4,
    "cuisine": "British / Other",
    "tags": []
  },
  {
    "_id": "703f1002-c6bc-472a-ba1a-606d26dab9ff",
    "name": "Green Burger",
    "address": "49 Albertbridge Road",
    "postcode": "BT6 1AE",
    "hygiene_rating": 1,
    "cuisine": "Burgers",
    "tags": [
      "burger"
    ]
  },
  {
    "_id": "3d1bdb25-9669-42d3-bf39-18fbb7d054c8",
    "name": "Golden Chippy Corner",
    "address": "69 Ormeau Road",
    "postcode": "BT13 7AC",
    "hygiene_rating": 3,
    "cuisine": "Fish & Chips",
    "tags": [
      "fish",
      "chips"
    ]
  },
  {
    "_id": "9c7cfdda-71be-4707-88e8-3ba122cfdddf",
    "name": "Green Diner",
    "address": "51 Ormeau Road",
    "postcode": "BT8 2AG",
    "hygiene_rating": 5,
    "cuisine": "British / Other",
    "tags": []
  },
  {
    "_id": "726d8dd9-20d7-4407-8c95-dc1284c57931",
    "name": "Spice House Express",
    "address": "108 Donegall Road",
    "postcode": "BT5 8BB",
    "hygiene_rating": 5,
    "cuisine": "Indian",
    "tags": [
      "curry",
      "spicy"
    ]
  },
  {
    "_id": "e63433af-285f-4ae8-b256-c9dfac420a71",
    "name": "Belfast Slice",
    "address": "162 Botanic Avenue",
    "postcode": "BT12 1AD",
    "hygiene_rating": 5,
    "cuisine": "Italian",
    "tags": [
      "pizza"
    ]
  },
  {
    "_id": "574e7bdd-9607-47a1-ab6d-dc08e2990d04",
    "name": "Test Cafe",
    "address": "123 Test Road",
    "postcode": "BT7 1AA",
    "hygiene_rating": 4,
    "cuisine": "Cafe",
    "tags": [
      "coffee",
      "study"
    ],
    "created_by": "c566155f-57cc-4f1f-a3f2-57e49fdb866b"
  },
  {
    "_id": "69ee268c-c00e-4b7e-adab-486467de478a",
    "name": "Test Cafe",
    "address": "123 Test Road",
    "postcode": "BT7 1AA",
    "hygiene_rating": 5,
    "cuisine": "Cafe",
    "tags": [
      "coffee",
      "study"
    ],
    "created_by": "c566155f-57cc-4f1f-a3f2-57e49fdb866b"
  },
  {
    "_id": "af2cb84d-a0cd-4f98-b92c-2305a721efa2",
    "name": "Test Cafe",
    "address": "123 Test Road",
    "postcode": "BT7 1AA",
    "hygiene_rating": 4,
    "cuisine": "Cafe",
    "tags": [
      "coffee",
      "study"
    ],
    "created_by": "9822de9a-b106-429b-8742-b7ea215a5526"
  },
  {
    "_id": "80c0739a-4cdc-49bb-81b3-22f022b45ace",
    "name": "Test Cafe",
    "address": "123 Test Road",
    "postcode": "BT7 1AA",
    "hygiene_rating": 4,
    "cuisine": "Cafe",
    "tags": [
      "coffee",
      "study"
    ],
    "created_by": "6e802da3-9e67-418d-8bdc-553726489312"
  }
]